stop_id,stop_code,stop_name,stop_desc,stop_lat,stop_lon,zone_id,stop_url,location_type,parent_station,stop_timezone,wheelchair_boarding,platform_code
2:1:JDFS-9,,Chotiměř,,,,744,,0,,Europe/Prague,0,
2:1:JDFS-8,,"Velemín,Hrušovka,rozc.",,,,744,,0,,Europe/Prague,0,
2:1:JDFS-7,,"Velemín,Dobkovičky",,,,741,,0,,Europe/Prague,0,
2:1:JDFS-6,,"Velemín,Březno",,,,742,,0,,Europe/Prague,0,
2:1:JDFS-5,,Bořislav,,,,453,,0,,Europe/Prague,0,
2:1:JDFS-4,,"Velemín,Boreč",,,,742,,0,,Europe/Prague,0,
2:1:JDFS-3,,"Velemín,Bílý Újezd",,,,741,,0,,Europe/Prague,0,
2:1:JDFS-27,,"Velemín,Milešovská",,,,741,,0,,Europe/Prague,0,
2:1:JDFS-26,,"Lovosice,Průmyslová",,,,701,,0,,Europe/Prague,0,
2:1:JDFS-25,,Žalany,,,,452,,0,,Europe/Prague,0,
2:1:JDFS-24,,"Vchynice,škola",,,,743,,0,,Europe/Prague,0,
2:1:JDFS-23,,"Vchynice,rozc.",,50.515715,14.025049,743,,0,,Europe/Prague,0,
2:1:JDFS-22,,Vchynice,,50.510233,14.018117,743,,0,,Europe/Prague,0,
2:1:JDFS-21,,"Velemín,škola",,,,741,,0,,Europe/Prague,0,
2:1:JDFS-20,,"Velemín,Milešov,Mlýnce rozc.0.5",,,,745,,0,,Europe/Prague,0,
2:1:JDFS-2,,"Velemín,Bílinka,rozc.0.5",,,,742,,0,,Europe/Prague,0,
2:1:JDFS-19,,Velemín,,,,741,,0,,Europe/Prague,0,
2:1:JDFS-18,,"Třebenice,Sutom",,,,742,,0,,Europe/Prague,0,
2:1:JDFS-17,,"Velemín,Režný Újezd",,,,742,,0,,Europe/Prague,0,
2:1:JDFS-16,,"Velemín,Opárno",,,,742,,0,,Europe/Prague,0,
2:1:JDFS-15,,"Velemín,Milešov",,,,745,,0,,Europe/Prague,0,
2:1:JDFS-14,,"Lovosice,záv.1",,,,701,,0,,Europe/Prague,0,
2:1:JDFS-13,,"Lovosice,radnice",,50.51589,14.049458,701,,0,,Europe/Prague,0,
2:1:JDFS-12,,"Lovosice,kostel",,50.5134773,14.0540428,701,,0,,Europe/Prague,0,
2:1:JDFS-11,,"Lovosice,aut.nádr.",,,,701,,0,,Europe/Prague,0,
2:1:JDFS-10,,"Chotiměř,školka",,,,744,,0,,Europe/Prague,0,
2:1:JDFS-1,,"Velemín,Bílinka",,,,742,,0,,Europe/Prague,0,
2:2:JDFS-9,,"Osek,Kolonie",,50.622408,13.70433,443,,0,,Europe/Prague,0,
2:2:JDFS-8,,Lahošť,,,,491,,0,,Europe/Prague,0,
2:2:JDFS-7,,"Háj u Duchcova,Dolní Háj žel.zast.",,,,448,,0,,Europe/Prague,0,
2:2:JDFS-6,,"Háj u Duchcova,Dolní Háj rozc.",,,,448,,0,,Europe/Prague,0,
2:2:JDFS-5,,"Duchcov,žel.st.",,,,411,,0,,Europe/Prague,0,
2:2:JDFS-4,,"Duchcov,Teplická",,50.606743,13.747672,411,,0,,Europe/Prague,0,
2:2:JDFS-3,,"Duchcov,Osecká",,50.607017,13.74576,411,,0,,Europe/Prague,0,
2:2:JDFS-25,,"Osek,sídliště",,,,443,,0,,Europe/Prague,0,
2:2:JDFS-24,,"Teplice,Řetenice,V Břízkách",,,,401,,0,,Europe/Prague,0,
2:2:JDFS-23,,"Teplice,Mariánský dvůr",,,,401,,0,,Europe/Prague,1,
2:2:JDFS-22,,"Teplice,Hudcov,Výšina",,,,401,,0,,Europe/Prague,0,
2:2:JDFS-21,,"Teplice,Hudcov,Panorama",,50.637093,13.791199,401,,0,,Europe/Prague,0,
2:2:JDFS-20,,"Teplice,Hotel de Saxe",,50.64388,13.829945,401,,0,,Europe/Prague,1,
2:2:JDFS-2,,"Duchcov,nem.",,50.610556,13.741451,411,,0,,Europe/Prague,0,
2:2:JDFS-19,,"Teplice,Hlavní nádraží",,,,401,,0,,Europe/Prague,1,
2:2:JDFS-18,,"Teplice,Benešovo náměstí",,,,401,,0,,Europe/Prague,1,
2:2:JDFS-17,,"Teplice,Alejní",,50.6394,13.822265,401,,0,,Europe/Prague,1,
2:2:JDFS-16,,"Osek,Zbrojnice",,50.622811,13.696959,443,,0,,Europe/Prague,0,
2:2:JDFS-15,,"Teplice,Řetenice,sídliště",,,,401,,0,,Europe/Prague,1,
2:2:JDFS-14,,"Teplice,Řetenice,Perla",,,,401,,0,,Europe/Prague,0,
2:2:JDFS-13,,"Teplice,Zámecká zahrada",,,,401,,0,,Europe/Prague,1,
2:2:JDFS-12,,"Teplice,nem.",,50.637066,13.811264,401,,0,,Europe/Prague,1,
2:2:JDFS-11,,"Osek,Národní dům",,,,443,,0,,Europe/Prague,0,
2:2:JDFS-10,,"Osek,nám.",,,,443,,0,,Europe/Prague,0,
2:2:JDFS-1,,"Duchcov,koupaliště",,,,411,,0,,Europe/Prague,0,
2:3:JDFS-9,,"Háj u Duchcova,Horní Háj",,,,442,,0,,Europe/Prague,0,
2:3:JDFS-6,,"Háj u Duchcova,Dolní Háj",,,,448,,0,,Europe/Prague,0,
2:3:JDFS-23,,"Teplice,Libušina",,,,401,,0,,Europe/Prague,0,
2:3:JDFS-22,,"Teplice,Křižíkova",,,,401,,0,,Europe/Prague,0,
2:3:JDFS-21,,"Teplice,Jateční",,,,401,,0,,Europe/Prague,0,
2:3:JDFS-17,,"Háj u Duchcova,ObÚ",,,,448,,0,,Europe/Prague,0,
2:3:JDFS-14,,"Osek,Tyršova",,,,443,,0,,Europe/Prague,0,
2:4:JDFS-9,,Přečaply,,,,501,,0,,Europe/Prague,0,
2:4:JDFS-8,,"Nezabylice,Na seníku",,,,582,,0,,Europe/Prague,0,
2:4:JDFS-7,,Lažany,,,,584,,0,,Europe/Prague,0,
2:4:JDFS-6,,"Chomutov,u pekárny",,,,501,,0,,Europe/Prague,0,
2:4:JDFS-5,,"Chomutov,Důl J.Žižky",,,,501,,0,,Europe/Prague,0,
2:4:JDFS-4,,"Chomutov,aut.nádr.",,,,501,,0,,Europe/Prague,0,
2:4:JDFS-3,,"Hrušovany,Na jezerech",,,,584,,0,,Europe/Prague,0,
2:4:JDFS-28,,"Údlice,zahrádky",,,,501,,0,,Europe/Prague,0,
2:4:JDFS-27,,"Chomutov,Dukelská II",,50.455093,13.431181,501,,0,,Europe/Prague,0,
2:4:JDFS-26,,"Chomutov,Dukelská I",,50.457537,13.425682,501,,0,,Europe/Prague,0,
2:4:JDFS-25,,"Údlice,čistička",,,,501,,0,,Europe/Prague,0,
2:4:JDFS-24,,"Údlice,pila",,,,501,,0,,Europe/Prague,0,
2:4:JDFS-23,,"Údlice,učiliště",,,,501,,0,,Europe/Prague,0,
2:4:JDFS-22,,"Žiželice,Hořetice,točna",,,,911,,0,,Europe/Prague,0,
2:4:JDFS-21,,"Žatec,Koito",,,,901,,0,,Europe/Prague,0,
2:4:JDFS-20,,"Žatec,Velichov",,,,901,,0,,Europe/Prague,0,
2:4:JDFS-2,,Hrušovany,,,,584,,0,,Europe/Prague,0,
2:4:JDFS-19,,"Chomutov,žel.st.",,,,501,,0,,Europe/Prague,0,
2:4:JDFS-18,,"Chomutov,Palackého",,,,501,,0,,Europe/Prague,0,
2:4:JDFS-17,,Žiželice,,,,911,,0,,Europe/Prague,0,
2:4:JDFS-16,,"Žatec,žel.st.",,,,901,,0,,Europe/Prague,0,
2:4:JDFS-15,,"Žatec,Prefa",,,,901,,0,,Europe/Prague,0,
2:4:JDFS-14,,"Žatec,u plynárny",,,,901,,0,,Europe/Prague,0,
2:4:JDFS-13,,"Žatec,Mostecká",,,,901,,0,,Europe/Prague,0,
2:4:JDFS-12,,"Žatec,aut.nádr.",,,,901,,0,,Europe/Prague,0,
2:4:JDFS-11,,"Údlice,nám.",,,,501,,0,,Europe/Prague,0,
2:4:JDFS-10,,"Přečaply,starý cukrovar",,,,501,,0,,Europe/Prague,0,
2:4:JDFS-1,,"Žiželice,Hořetice,žel.přejezd",,,,911,,0,,Europe/Prague,0,
2:5:JDFS-9,,"Snědovice,Křešov",,,,652,,0,,Europe/Prague,0,
2:5:JDFS-8,,"Záluží,Kozlovice,rozc.",,,,684,,0,,Europe/Prague,0,
2:5:JDFS-7,,"Štětí,Hněvice,předmostí",,,,651,,0,,Europe/Prague,0,
2:5:JDFS-6,,"Štětí,Hněvice,Benzina rozc.",,,,682,,0,,Europe/Prague,0,
2:5:JDFS-5,,"Dušníky,čerp.st.",,,,773,,0,,Europe/Prague,0,
2:5:JDFS-42,,"Štětí,Boženy Němcové",,,,651,,0,,Europe/Prague,0,
2:5:JDFS-41,,"Račice,Labe aréna",,,,657,,0,,Europe/Prague,0,
2:5:JDFS-40,,"Roudnice n.L.,Na Kolečku",,50.425053,14.237574,661,,0,,Europe/Prague,0,
2:5:JDFS-4,,Dušníky,,,,773,,0,,Europe/Prague,0,
2:5:JDFS-39,,"Štětí,centrum",,,,651,,0,,Europe/Prague,0,
2:5:JDFS-38,,"Bechlín,Předonín,košíkárna",,,,682,,0,,Europe/Prague,0,
2:5:JDFS-37,,Dobříň,,,,681,,0,,Europe/Prague,0,
2:5:JDFS-36,,"Tuhaň,Pavličky,rozc.Zátyní",,,,632,,0,,Europe/Prague,0,
2:5:JDFS-35,,Záluží,,,,684,,0,,Europe/Prague,0,
2:5:JDFS-34,,"Snědovice,Velký Hubenov",,,,634,,0,,Europe/Prague,0,
2:5:JDFS-33,,"Snědovice,Střížovice,rozc.",,,,634,,0,,Europe/Prague,0,
2:5:JDFS-32,,Tuhaň,,,,632,,0,,Europe/Prague,0,
2:5:JDFS-31,,"Štětí,žel.přejezd",,,,651,,0,,Europe/Prague,0,
2:5:JDFS-30,,"Štětí,záv.",,,,651,,0,,Europe/Prague,0,
2:5:JDFS-3,,"Tuhaň,rozcestí Mošnice",,,,632,,0,,Europe/Prague,0,
2:5:JDFS-29,,"Štětí,prádelna",,,,651,,0,,Europe/Prague,0,
2:5:JDFS-28,,"Štětí,Cihelná",,,,651,,0,,Europe/Prague,0,
2:5:JDFS-27,,"Snědovice,Sukorady",,,,634,,0,,Europe/Prague,0,
2:5:JDFS-26,,"Snědovice,Střížovice",,,,652,,0,,Europe/Prague,0,
2:5:JDFS-25,,Snědovice,,,,652,,0,,Europe/Prague,0,
2:5:JDFS-24,,"Roudnice n.L.,žel.st.",,,,661,,0,,Europe/Prague,0,
2:5:JDFS-23,,"Roudnice n.L.,nemocnice",,50.423585,14.247683,661,,0,,Europe/Prague,0,
2:5:JDFS-22,,"Roudnice n.L.,sídliště",,,,661,,0,,Europe/Prague,0,
2:5:JDFS-21,,"Roudnice n.L.,Riegrova",,50.423201,14.260926,661,,0,,Europe/Prague,0,
2:5:JDFS-20,,"Roudnice n.L.,Masný průmysl",,,,661,,0,,Europe/Prague,0,
2:5:JDFS-2,,"Dubá,aut.nádr.",,,,633,,0,,Europe/Prague,0,
2:5:JDFS-19,,"Roudnice n.L.,Purkyňovo nám.",,,,661,,0,,Europe/Prague,0,
2:5:JDFS-18,,"Roudnice n.L.,Chelčického",,,,661,,0,,Europe/Prague,0,
2:5:JDFS-17,,"Roudnice n.L.,Bezděkov škola",,,,661,,0,,Europe/Prague,0,
2:5:JDFS-16,,"Roudnice n.L.,aut.nádr.",,,,"661,661",,0,,Europe/Prague,0,
2:5:JDFS-15,,"Štětí,Radouň",,,,653,,0,,Europe/Prague,0,
2:5:JDFS-14,,Račice,,,,"657,657",,0,,Europe/Prague,0,
2:5:JDFS-13,,"Bechlín,Předonín",,,,682,,0,,Europe/Prague,0,
2:5:JDFS-12,,"Roudnice n.L.,Podlusky,9.května",,50.421001,14.226446,661,,0,,Europe/Prague,0,
2:5:JDFS-11,,"Roudnice n.L.,Podlusky,Zahradní",,50.423748,14.2312,661,,0,,Europe/Prague,0,
2:5:JDFS-10,,"Tuhaň,Pavličky",,,,632,,0,,Europe/Prague,0,
2:5:JDFS-1,,"Dobříň,rozc.",,,,681,,0,,Europe/Prague,0,
2:6:JDFS-9,,"Klášterec n.Ohří,stadion",,,,541,,0,,Europe/Prague,0,
2:6:JDFS-8,,"Klášterec n.Ohří,aut.nádr.",,,,541,,0,,Europe/Prague,0,
2:6:JDFS-7,,"Klášterec n.Ohří,porcelánka",,,,541,,0,,Europe/Prague,0,
2:6:JDFS-6,,"Kadaň,koupaliště",,,,531,,0,,Europe/Prague,0,
2:6:JDFS-5,,"Kadaň,Jungmanova",,50.3779,13.266367,531,,0,,Europe/Prague,0,
2:6:JDFS-4,,"Kadaň,aut.nádr.",,,,531,,0,,Europe/Prague,0,
2:6:JDFS-31,,"Cunersdorf,Gh Morgensonne",,50.550085,13.017874,277,,0,,Europe/Prague,0,
2:6:JDFS-30,,"Vejprty,CLO",,,,x,,0,,Europe/Prague,0,
2:6:JDFS-3,,Horní Halže,,,,553,,0,,Europe/Prague,0,
2:6:JDFS-29,,"Bärenstein,Kühlberg,B 95",,,,273,,0,,Europe/Prague,0,
2:6:JDFS-28,,"Bärenstein,Ortseingang",,,,273,,0,,Europe/Prague,0,
2:6:JDFS-27,,"Bärenstein,Turnhalle",,,,273,,0,,Europe/Prague,0,
2:6:JDFS-26,,"Bärenstein,ZOLL",,,,x,,0,,Europe/Prague,0,
2:6:JDFS-25,,"Annaberg-Buchholz,RVE",,50.584404,13.0127106,279,,0,,Europe/Prague,0,
2:6:JDFS-24,,"Klášterec n.Ohří,žel.st.",,,,541,,0,,Europe/Prague,0,
2:6:JDFS-23,,"Annaberg-Buchholz,Busbahnhof",,50.58378,13.0091257,279,,0,,Europe/Prague,0,
2:6:JDFS-22,,"Vejprty,Nové Zvolání,KOVO",,,,551,,0,,Europe/Prague,0,
2:6:JDFS-21,,"Vejprty,Nové Zvolání",,,,551,,0,,Europe/Prague,0,
2:6:JDFS-20,,"Vejprty,předměstí",,,,551,,0,,Europe/Prague,0,
2:6:JDFS-2,,"Loučná,České Hamry,Výsada",,,,555,,0,,Europe/Prague,0,
2:6:JDFS-19,,"Vejprty,aut.st.",,50.491787,13.0319223,551,,0,,Europe/Prague,0,
2:6:JDFS-18,,"Klášterec n.Ohří,Mikulovice",,,,541,,0,,Europe/Prague,0,
2:6:JDFS-17,,Petlery,,50.413202,13.160451,542,,0,,Europe/Prague,0,
2:6:JDFS-16,,"Klášterec n.Ohří,Mikulovice,statek",,,,541,,0,,Europe/Prague,0,
2:6:JDFS-15,,"Měděnec,žel.st.",,,,553,,0,,Europe/Prague,0,
2:6:JDFS-14,,"Měděnec,rozc.k dolu",,,,553,,0,,Europe/Prague,0,
2:6:JDFS-13,,Měděnec,,,,553,,0,,Europe/Prague,0,
2:6:JDFS-12,,"Kovářská,rozc.Elektropřístroj",,,,554,,0,,Europe/Prague,0,
2:6:JDFS-11,,"Kovářská,ObÚ",,,,554,,0,,Europe/Prague,0,
2:6:JDFS-10,,"Klášterec n.Ohří,Petlérská",,,,541,,0,,Europe/Prague,0,
2:6:JDFS-1,,"Loučná,České Hamry",,,,555,,0,,Europe/Prague,0,
2:7:JDFS-9,,"Děčín,Růžek",,,,301,,0,,Europe/Prague,0,
2:7:JDFS-8,,"Děčín,Netex",,,,301,,0,,Europe/Prague,0,
2:7:JDFS-7,,"Děčín,Myslbekova",,,,301,,0,,Europe/Prague,0,
2:7:JDFS-6,,"Děčín,Kovočas",,,,301,,0,,Europe/Prague,0,
2:7:JDFS-5,,"Děčín,hl.nádr.",,,,301,,0,,Europe/Prague,0,
2:7:JDFS-43,,"Růžová,samota",,,,"326,326",,0,,Europe/Prague,0,
2:7:JDFS-42,,"Janov,bytovky",,50.8593254,14.2692652,327,,0,,Europe/Prague,0,
2:7:JDFS-41,,"Děčín,Prokopa Holého",,,,"301,301",,0,,Europe/Prague,0,
2:7:JDFS-40,,"Srbská Kamenice,křiž.",,,,343,,0,,Europe/Prague,0,
2:7:JDFS-4,,Bynovec,,50.821222,14.264353,324,,0,,Europe/Prague,0,
2:7:JDFS-39,,"Růžová,II",,,,326,,0,,Europe/Prague,0,
2:7:JDFS-38,,"Růžová,I",,,,"326,326",,0,,Europe/Prague,0,
2:7:JDFS-37,,"Huntířov,Nová Oleška,rozc.",,,,345,,0,,Europe/Prague,0,
2:7:JDFS-36,,"Jílové,Modrá,Lidový dům",,,,311,,0,,Europe/Prague,0,
2:7:JDFS-35,,"Jílové,Modrá",,,,311,,0,,Europe/Prague,0,
2:7:JDFS-34,,"Jílové,Martiněves,rozc.",,,,311,,0,,Europe/Prague,0,
2:7:JDFS-33,,"Jílové,Martiněves",,,,311,,0,,Europe/Prague,0,
2:7:JDFS-32,,"Ludvíkovice,rozc.",,,,347,,0,,Europe/Prague,0,
2:7:JDFS-31,,"Ludvíkovice,pož.zbroj.",,,,347,,0,,Europe/Prague,0,
2:7:JDFS-30,,"Ludvíkovice,pošta",,,,347,,0,,Europe/Prague,0,
2:7:JDFS-3,,"Bynovec,hřiště",,,,"324,324,324",,0,,Europe/Prague,0,
2:7:JDFS-29,,"Ludvíkovice,hor.ves",,,,347,,0,,Europe/Prague,0,
2:7:JDFS-28,,"Ludvíkovice,ČSAD",,,,301,,0,,Europe/Prague,0,
2:7:JDFS-27,,"Libouchec,u Hájků",,,,131,,0,,Europe/Prague,0,
2:7:JDFS-26,,"Libouchec,rozc.",,50.758884,14.06802,131,,0,,Europe/Prague,0,
2:7:JDFS-25,,"Libouchec,ObÚ",,50.7579536,14.0414009,131,,0,,Europe/Prague,0,
2:7:JDFS-24,,"Libouchec,kino",,50.76112,14.049438,131,,0,,Europe/Prague,0,
2:7:JDFS-23,,"Arnoltice,u Pajonků",,50.848503,14.237514,"328,328",,0,,Europe/Prague,0,
2:7:JDFS-22,,Labská Stráň,,,,328,,0,,Europe/Prague,0,
2:7:JDFS-21,,"Jílové,Kamenec",,,,311,,0,,Europe/Prague,0,
2:7:JDFS-20,,"Kámen,rozc.",,,,344,,0,,Europe/Prague,0,
2:7:JDFS-2,,"Růžová,Nový Svět",,,,"326,326",,0,,Europe/Prague,0,
2:7:JDFS-19,,"Jílové,papírny",,,,311,,0,,Europe/Prague,0,
2:7:JDFS-18,,"Jílové,nám.",,,,311,,0,,Europe/Prague,0,
2:7:JDFS-17,,"Janov,u Myškovských",,,,327,,0,,Europe/Prague,0,
2:7:JDFS-16,,"Janov,Na hájenkách",,,,327,,0,,Europe/Prague,0,
2:7:JDFS-15,,Janov,,50.655429,13.739541,327,,0,,Europe/Prague,0,
2:7:JDFS-14,,"Děčín,Bynov,škola",,,,301,,0,,Europe/Prague,0,
2:7:JDFS-13,,"Děčín,U zámečku",,,,301,,0,,Europe/Prague,0,
2:7:JDFS-12,,"Děčín,Tyršova",,,,301,,0,,Europe/Prague,0,
2:7:JDFS-11,,"Děčín,Teplická",,,,301,,0,,Europe/Prague,0,
2:7:JDFS-10,,"Děčín,škola",,,,301,,0,,Europe/Prague,0,
2:7:JDFS-1,,Arnoltice,,50.836693,14.263691,"325,325",,0,,Europe/Prague,0,
2:8:JDFS-9,,"Libouchec,statek",,50.753913,14.03499,131,,0,,Europe/Prague,0,
2:8:JDFS-7,,"Ústí n.L.,Kojetice",,,,101,,0,,Europe/Prague,0,
2:8:JDFS-6,,"Chuderov,ObÚ",,,,101,,0,,Europe/Prague,0,
2:8:JDFS-5,,Chuderov,,50.688715,14.04648,101,,0,,Europe/Prague,0,
2:8:JDFS-42,,"Ústí n.L.,Malá Hradební",,,,101,,0,,Europe/Prague,0,
2:8:JDFS-41,,"Ústí n.L.,Divadlo",,,,101,,0,,Europe/Prague,0,
2:8:JDFS-40,,"Ústí n.L.,Mírové nám.",,,,101,,0,,Europe/Prague,0,
2:8:JDFS-4,,"Malečov,Čeřeniště",,,,162,,0,,Europe/Prague,0,
2:8:JDFS-39,,"Velké Chvojno,Žďár,rozc.0.5",,,,136,,0,,Europe/Prague,0,
2:8:JDFS-38,,"Velké Chvojno,Žďár",,,,136,,0,,Europe/Prague,0,
2:8:JDFS-37,,"Velké Chvojno,škola",,,,136,,0,,Europe/Prague,0,
2:8:JDFS-36,,Velké Chvojno,,50.7324,14.036814,136,,0,,Europe/Prague,0,
2:8:JDFS-35,,"Ústí n.L.,Kamenný Vrch škola",,,,101,,0,,Europe/Prague,0,
2:8:JDFS-34,,"Ústí n.L.,Kamenný Vrch",,,,101,,0,,Europe/Prague,0,
2:8:JDFS-33,,"Ústí n.L.,Kočkov",,,,101,,0,,Europe/Prague,0,
2:8:JDFS-32,,"Ústí n.L.,hl.nádr.",,,,101,,0,,Europe/Prague,0,
2:8:JDFS-31,,"Ústí n.L.,Hraničář",,,,101,,0,,Europe/Prague,0,
2:8:JDFS-30,,"Ústí n.L.,Elba",,,,101,,0,,Europe/Prague,0,
2:8:JDFS-3,,"Malečov,Březí,rozc.0.3",,,,161,,0,,Europe/Prague,0,
2:8:JDFS-29,,"Ústí n.L.,Na kopečku",,,,101,,0,,Europe/Prague,0,
2:8:JDFS-28,,"Ústí n.L.,Hilarova",,,,101,,0,,Europe/Prague,0,
2:8:JDFS-27,,"Ústí n.L.,Bělehradská",,,,101,,0,,Europe/Prague,0,
2:8:JDFS-26,,"Tašov,ovčárna",,,,"162,162",,0,,Europe/Prague,0,
2:8:JDFS-25,,Tašov,,,,162,,0,,Europe/Prague,0,
2:8:JDFS-24,,"Chuderov,Sovolusky,rozc.0.5",,50.694163,14.068725,101,,0,,Europe/Prague,0,
2:8:JDFS-23,,"Malečov,Rýdeč,odb.Lhota pod Pannou",,,,162,,0,,Europe/Prague,0,
2:8:JDFS-22,,"Malečov,Rýdeč",,,,162,,0,,Europe/Prague,0,
2:8:JDFS-21,,"Chuderov,Radešín",,,,101,,0,,Europe/Prague,0,
2:8:JDFS-20,,"Malečov,Proboštov,odb.Lhota pod Pannou",,,,162,,0,,Europe/Prague,0,
2:8:JDFS-2,,"Chuderov,Lipová,rozc.Blansko 1.5",,50.711329,14.084211,133,,0,,Europe/Prague,0,
2:8:JDFS-19,,"Malečov,Proboštov,host.",,,,162,,0,,Europe/Prague,0,
2:8:JDFS-18,,"Malečov,Pohoří,rozc.0.5",,,,161,,0,,Europe/Prague,0,
2:8:JDFS-17,,"Velké Chvojno,Mnichov",,50.72246,14.077004,136,,0,,Europe/Prague,0,
2:8:JDFS-16,,"Malečov,odb.",,,,101,,0,,Europe/Prague,0,
2:8:JDFS-15,,Malečov,,,,161,,0,,Europe/Prague,0,
2:8:JDFS-14,,"Velké Chvojno,Malé Chvojno,rozc.",,,,131,,0,,Europe/Prague,0,
2:8:JDFS-13,,"Velké Chvojno,Malé Chvojno",,,,136,,0,,Europe/Prague,0,
2:8:JDFS-12,,"Velké Chvojno,Luční Chvojno",,,,136,,0,,Europe/Prague,0,
2:8:JDFS-11,,"Chuderov,Lipová",,50.716646,14.087862,133,,0,,Europe/Prague,0,
2:8:JDFS-10,,"Chuderov,Libov",,50.705656,14.072221,133,,0,,Europe/Prague,0,
2:8:JDFS-1,,"Velké Chvojno,Arnultovice",,50.714401,14.046202,136,,0,,Europe/Prague,0,
2:9:JDFS-9,,"Dubí,Bystřice,škola",,,,421,,0,,Europe/Prague,0,
2:9:JDFS-8,,"Dubí,Bystřice,gymnázium",,,,421,,0,,Europe/Prague,0,
2:9:JDFS-7,,"Dubí,Bystřice,Dlouhá",,,,421,,0,,Europe/Prague,0,
2:9:JDFS-6,,"Dubí,Bystřice,B.Němcové",,,,421,,0,,Europe/Prague,0,
2:9:JDFS-5,,"Teplice,Novosedlická",,50.647588,13.821001,401,,0,,Europe/Prague,0,
2:9:JDFS-4,,"Teplice,Mánesovo nám.",,,,401,,0,,Europe/Prague,0,
2:9:JDFS-3,,"Novosedlice,pošta",,,,421,,0,,Europe/Prague,0,
2:9:JDFS-25,,"Dubí,Pozorka,závod",,,,421,,0,,Europe/Prague,0,
2:9:JDFS-24,,"Dubí,Pozorka,Novosedlická",,,,421,,0,,Europe/Prague,0,
2:9:JDFS-23,,"Dubí,Pozorka",,,,421,,0,,Europe/Prague,0,
2:9:JDFS-22,,"Dubí,Bystřice,Tovární II",,,,421,,0,,Europe/Prague,0,
2:9:JDFS-21,,"Dubí,Bystřice,Tovární I",,,,421,,0,,Europe/Prague,0,
2:9:JDFS-2,,"Dubí,MěÚ",,,,421,,0,,Europe/Prague,0,
2:9:JDFS-17,,"Novosedlice,Míru",,,,421,,0,,Europe/Prague,0,
2:9:JDFS-16,,"Novosedlice,hřbitov",,,,421,,0,,Europe/Prague,0,
2:9:JDFS-15,,"Dubí,škola",,,,421,,0,,Europe/Prague,0,
2:9:JDFS-14,,"Dubí,Pozorka,sklárna",,,,421,,0,,Europe/Prague,0,
2:9:JDFS-13,,"Dubí,Pozorka,nám.",,,,421,,0,,Europe/Prague,0,
2:9:JDFS-12,,"Dubí,porcelánka",,,,421,,0,,Europe/Prague,0,
2:9:JDFS-11,,"Dubí,lázně",,,,421,,0,,Europe/Prague,0,
2:9:JDFS-10,,"Dubí,Krušnohorská",,,,421,,0,,Europe/Prague,0,
2:9:JDFS-1,,"Dubí,kostel",,,,421,,0,,Europe/Prague,0,
2:10:JDFS-9,,"Dolní Podluží,křiž.",,,,366,,0,,Europe/Prague,0,
2:10:JDFS-8,,"Dolní Podluží,kino",,,,366,,0,,Europe/Prague,0,
2:10:JDFS-7,,"Dolní Podluží,drůbežárna",,,,366,,0,,Europe/Prague,0,
2:10:JDFS-34,,"Rybniště,Nová Chřibská",,,,363,,0,,Europe/Prague,0,
2:10:JDFS-33,,"Česká Kamenice,Líska,Křížový buk",,,,351,,0,,Europe/Prague,0,
2:10:JDFS-32,,"Česká Kamenice,Líska,hor.",,,,351,,0,,Europe/Prague,0,
2:10:JDFS-31,,"Česká Kamenice,Líska",,,,351,,0,,Europe/Prague,0,
2:10:JDFS-30,,"Česká Kamenice,Kamenická Nová Víska",,,,351,,0,,Europe/Prague,0,
2:10:JDFS-3,,"Děčín,aut.nádr.",,,,301,,0,,Europe/Prague,0,
2:10:JDFS-29,,"Česká Kamenice,Dolní Kamenice,Děčínská",,,,351,,0,,Europe/Prague,0,
2:10:JDFS-28,,"Varnsdorf,u Vorlíčků",,,,371,,0,,Europe/Prague,0,
2:10:JDFS-27,,"Varnsdorf,Severní dráha",,,,371,,0,,Europe/Prague,0,
2:10:JDFS-26,,"Varnsdorf,jatky",,50.891788,14.622885,371,,0,,Europe/Prague,0,
2:10:JDFS-25,,"Varnsdorf,sportovní hala",,50.907299,14.623501,371,,0,,Europe/Prague,0,
2:10:JDFS-24,,"Varnsdorf,aut.nádr.",,,,371,,0,,Europe/Prague,0,
2:10:JDFS-23,,"Rybniště,pošta",,,,363,,0,,Europe/Prague,0,
2:10:JDFS-22,,"Rybniště,odb.Doubice",,,,363,,0,,Europe/Prague,0,
2:10:JDFS-21,,Markvartice,,50.77252,14.346529,355,,0,,Europe/Prague,0,
2:10:JDFS-20,,Ludvíkovice,,,,347,,0,,Europe/Prague,0,
2:10:JDFS-2,,"Česká Kamenice,Pražská",,,,351,,0,,Europe/Prague,0,
2:10:JDFS-19,,"Jiřetín p.Jedlovou,nám.",,,,365,,0,,Europe/Prague,0,
2:10:JDFS-18,,"Chřibská,ozdravovna",,,,361,,0,,Europe/Prague,0,
2:10:JDFS-17,,"Chřibská,nám.",,,,361,,0,,Europe/Prague,0,
2:10:JDFS-16,,Huntířov,,,,345,,0,,Europe/Prague,0,
2:10:JDFS-15,,"Horní Podluží,u vleku",,,,364,,0,,Europe/Prague,0,
2:10:JDFS-14,,"Horní Podluží,křiž.",,,,364,,0,,Europe/Prague,0,
2:10:JDFS-13,,"Česká Kamenice,Horní Kamenice",,,,351,,0,,Europe/Prague,0,
2:10:JDFS-12,,"Dolní Podluží,žel.st.",,,,366,,0,,Europe/Prague,0,
2:10:JDFS-11,,"Dolní Podluží,Velveta 06",,,,366,,0,,Europe/Prague,0,
2:10:JDFS-10,,"Dolní Podluží,škola",,,,366,,0,,Europe/Prague,0,
2:10:JDFS-1,,"Česká Kamenice,Fibichova",,,,351,,0,,Europe/Prague,0,
2:11:JDFS-9,,"Louny,ČSAD",,,,801,,0,,Europe/Prague,0,
2:11:JDFS-8,,"Černčice,nad pivovarem",,,,861,,0,,Europe/Prague,0,
2:11:JDFS-7,,"Louny,Luna",,50.357027,13.78872,801,,0,,Europe/Prague,0,
2:11:JDFS-6,,"Louny,aut.nádr.",,,,801,,0,,Europe/Prague,0,
2:11:JDFS-5,,"Slavětín,Kystra,rozc.",,,,867,,0,,Europe/Prague,0,
2:11:JDFS-4,,"Slavětín,Kystra",,,,867,,0,,Europe/Prague,0,
2:11:JDFS-3,,"Obora,závod",,,,861,,0,,Europe/Prague,0,
2:11:JDFS-22,,"Peruc,žel.st.",,,,871,,0,,Europe/Prague,0,
2:11:JDFS-21,,"Louny,sokolovna",,50.355544,13.795152,801,,0,,Europe/Prague,0,
2:11:JDFS-20,,Veltěže,,,,868,,0,,Europe/Prague,0,
2:11:JDFS-2,,"Černčice,škola",,,,861,,0,,Europe/Prague,0,
2:11:JDFS-19,,"Peruc,Telce",,50.3097572,13.9734278,873,,0,,Europe/Prague,0,
2:11:JDFS-18,,"Peruc,Stradonice",,50.373302,13.958233,872,,0,,Europe/Prague,0,
2:11:JDFS-17,,Slavětín,,,,867,,0,,Europe/Prague,0,
2:11:JDFS-16,,"Peruc,Radonice n.Ohří",,50.377247,13.920452,872,,0,,Europe/Prague,0,
2:11:JDFS-15,,"Peruc,koupaliště",,,,871,,0,,Europe/Prague,0,
2:11:JDFS-14,,Peruc,,50.339433,13.960052,"871,871",,0,,Europe/Prague,0,
2:11:JDFS-13,,"Peruc,Pátek",,,,872,,0,,Europe/Prague,0,
2:11:JDFS-12,,"Louny,žel.st.",,,,801,,0,,Europe/Prague,0,
2:11:JDFS-11,,"Louny,Praga",,50.359562,13.81605,801,,0,,Europe/Prague,0,
2:11:JDFS-10,,"Louny,EPL hl.vrát.",,,,801,,0,,Europe/Prague,0,
2:11:JDFS-1,,Černčice,,,,861,,0,,Europe/Prague,0,
2:12:JDFS-9,,"Česká Kamenice,žel.st.",,,,351,,0,,Europe/Prague,0,
2:12:JDFS-8,,"Česká Kamenice,Benar",,,,351,,0,,Europe/Prague,0,
2:12:JDFS-6,,"Janská,u Bednářů",,,,357,,0,,Europe/Prague,0,
2:12:JDFS-5,,"Janská,prodejna",,50.803939,14.369807,357,,0,,Europe/Prague,0,
2:12:JDFS-4,,"Janská,odb.VÚ",,,,351,,0,,Europe/Prague,0,
2:12:JDFS-3,,"Janská,Drůbežárna",,,,357,,0,,Europe/Prague,0,
2:12:JDFS-2,,"Janská,bytovky",,50.807363,14.360166,357,,0,,Europe/Prague,0,
2:13:JDFS-9,,"Krupka,zahr.kolonie",,50.692438,13.851999,431,,0,,Europe/Prague,0,
2:13:JDFS-8,,"Krupka,škola",,,,431,,0,,Europe/Prague,0,
2:13:JDFS-7,,"Krupka,rozc.",,50.664772,13.879823,431,,0,,Europe/Prague,0,
2:13:JDFS-6,,"Krupka,muzeum",,50.686677,13.855412,431,,0,,Europe/Prague,0,
2:13:JDFS-5,,"Krupka,Husitská",,50.69108,13.8577871,431,,0,,Europe/Prague,0,
2:13:JDFS-41,,"Krupka,ke Kateřině",,,,"431,431",,0,,Europe/Prague,0,
2:13:JDFS-40,,"Krupka,Hornická stezka",,50.692896,13.855177,431,,0,,Europe/Prague,0,
2:13:JDFS-4,,"Duchcov,Želenská",,,,411,,0,,Europe/Prague,0,
2:13:JDFS-39,,"Krupka,Bohosudov,žel.st.",,50.67131,13.875007,431,,0,,Europe/Prague,0,
2:13:JDFS-38,,"Krupka,štola Starý Martin",,,,431,,0,,Europe/Prague,0,
2:13:JDFS-37,,"Krupka,prům.zóna III",,,,431,,0,,Europe/Prague,0,
2:13:JDFS-36,,"Zabrušany,Želénky",,,,493,,0,,Europe/Prague,0,
2:13:JDFS-35,,"Zabrušany,Všechlapy",,,,493,,0,,Europe/Prague,0,
2:13:JDFS-34,,"Zabrušany,Štěrbina",,,,493,,0,,Europe/Prague,0,
2:13:JDFS-33,,"Zabrušany,Straky",,,,493,,0,,Europe/Prague,0,
2:13:JDFS-32,,"Zabrušany,rozc.",,,,493,,0,,Europe/Prague,0,
2:13:JDFS-31,,"Teplice,Valy",,50.634846,13.82733,401,,0,,Europe/Prague,0,
2:13:JDFS-30,,"Teplice,Trnovany,Policie ČR",,50.650313,13.837932,401,,0,,Europe/Prague,0,
2:13:JDFS-29,,"Teplice,Trnovany,čerp.st.",,50.653851,13.849632,401,,0,,Europe/Prague,0,
2:13:JDFS-28,,"Teplice,Trnovany",,50.652145,13.843906,401,,0,,Europe/Prague,0,
2:13:JDFS-27,,"Teplice,Novoveská",,50.6249352,13.818552,401,,0,,Europe/Prague,0,
2:13:JDFS-25,,"Teplice,Bystřanská u přejezdu",,,,401,,0,,Europe/Prague,0,
2:13:JDFS-24,,"Teplice,Bílá cesta",,,,401,,0,,Europe/Prague,0,
2:13:JDFS-22,,"Krupka,U plovárny",,,,431,,0,,Europe/Prague,0,
2:13:JDFS-21,,"Krupka,Horní Krupka,host.",,50.702347,13.85468,432,,0,,Europe/Prague,0,
2:13:JDFS-20,,"Krupka,Horní Krupka",,,,432,,0,,Europe/Prague,0,
2:13:JDFS-19,,"Krupka,Fojtovice,Komáří vížka",,,,432,,0,,Europe/Prague,0,
2:13:JDFS-18,,"Krupka,Fojtovice",,50.7152977,13.85465,432,,0,,Europe/Prague,0,
2:13:JDFS-17,,"Krupka,Bohosudov,MěÚ",,50.67228,13.878811,431,,0,,Europe/Prague,0,
2:13:JDFS-16,,"Krupka,Bohosudov,Dlouhá",,50.678888,13.877116,431,,0,,Europe/Prague,0,
2:13:JDFS-15,,"Teplice,Olympia",,50.661602,13.8655825,401,,0,,Europe/Prague,1,
2:13:JDFS-14,,"Krupka,prům.zóna II",,,,431,,0,,Europe/Prague,0,
2:13:JDFS-13,,"Krupka,prům.zóna I",,,,431,,0,,Europe/Prague,0,
2:13:JDFS-12,,"Zabrušany,ObÚ",,,,493,,0,,Europe/Prague,0,
2:13:JDFS-11,,"Teplice,divadlo",,50.640166,13.82892,401,,0,,Europe/Prague,0,
2:13:JDFS-10,,Srbice,,50.660416,13.868459,401,,0,,Europe/Prague,0,
2:13:JDFS-1,,"Duchcov,kino",,50.603423,13.747748,411,,0,,Europe/Prague,0,
2:14:JDFS-6,,"Chožov,u váhy",,,,863,,0,,Europe/Prague,0,
2:14:JDFS-5,,"Chožov,u čs.kostela",,,,863,,0,,Europe/Prague,0,
2:14:JDFS-4,,"Děčany,rozc.0.5",,,,"753,753",,0,,Europe/Prague,0,
2:14:JDFS-33,,"Bitozeves,Triangle-sever III",,50.375117,13.597357,917,,0,,Europe/Prague,0,
2:14:JDFS-32,,"Velemyšleves,Triangle-západ",,,,917,,0,,Europe/Prague,0,
2:14:JDFS-31,,"Velemyšleves,Triangle-sever II",,50.379681,13.571808,917,,0,,Europe/Prague,0,
2:14:JDFS-30,,"Bitozeves,Triangle-východ",,,,"917,917",,0,,Europe/Prague,0,
2:14:JDFS-3,,Děčany,,,,753,,0,,Europe/Prague,0,
2:14:JDFS-29,,"Velemyšleves,Triangle-sever",,50.3776779,13.5787411,917,,0,,Europe/Prague,0,
2:14:JDFS-28,,"Staňkovice,Triangle-jih",,,,917,,0,,Europe/Prague,0,
2:14:JDFS-26,,"Chožov,samota",,,,863,,0,,Europe/Prague,0,
2:14:JDFS-25,,"Vršovice,u jezu",,,,862,,0,,Europe/Prague,0,
2:14:JDFS-24,,Vršovice,,,,862,,0,,Europe/Prague,0,
2:14:JDFS-23,,"Chožov,Třtěno",,,,863,,0,,Europe/Prague,0,
2:14:JDFS-22,,"Třebívlice,žel.st.",,,,751,,0,,Europe/Prague,0,
2:14:JDFS-21,,"Třebívlice,nám.",,,,751,,0,,Europe/Prague,0,
2:14:JDFS-20,,"Děčany,Solany",,,,753,,0,,Europe/Prague,0,
2:14:JDFS-19,,"Postoloprty,nákup.stř.",,,,811,,0,,Europe/Prague,0,
2:14:JDFS-18,,"Postoloprty,Březno",,,,811,,0,,Europe/Prague,0,
2:14:JDFS-17,,Postoloprty,,50.359943,13.691013,811,,0,,Europe/Prague,0,
2:14:JDFS-16,,"Chožov,Mnichovský Týnec,rozc.",,,,863,,0,,Europe/Prague,0,
2:14:JDFS-15,,"Děčany,Lukohořany",,,,753,,0,,Europe/Prague,0,
2:14:JDFS-11,,"Louny,EPL",,50.35428,13.76183,801,,0,,Europe/Prague,0,
2:14:JDFS-1,,"Postoloprty,Březno,rozc.",,,,811,,0,,Europe/Prague,0,
2:15:JDFS-9,,Hoštka,,,,654,,0,,Europe/Prague,0,
2:15:JDFS-8,,"Kyškovice,Hamráček,rozc.",,,,667,,0,,Europe/Prague,0,
2:15:JDFS-5,,"Budyně n.Ohří,žel.st.",,,,771,,0,,Europe/Prague,0,
2:15:JDFS-47,,"Hoštka,škola",,,,654,,0,,Europe/Prague,0,
2:15:JDFS-46,,"Radovesice,náves",,,,729,,0,,Europe/Prague,0,
2:15:JDFS-45,,"Vrutice,Svařenice,Vrbická",,,,655,,0,,Europe/Prague,0,
2:15:JDFS-42,,"Přestavlky,rozc.1.0",,,,772,,0,,Europe/Prague,0,
2:15:JDFS-41,,"Budyně n.Ohří,Pražská",,,,771,,0,,Europe/Prague,0,
2:15:JDFS-40,,Žabovřesky n.Ohří,,,,775,,0,,Europe/Prague,0,
2:15:JDFS-4,,"Budyně n.Ohří,škola",,,,771,,0,,Europe/Prague,0,
2:15:JDFS-39,,"Budyně n.Ohří,Vrbka",,,,771,,0,,Europe/Prague,0,
2:15:JDFS-38,,Vrbice,,50.482903,14.286608,656,,0,,Europe/Prague,0,
2:15:JDFS-37,,"Vrbice,Vetlá",,,,656,,0,,Europe/Prague,0,
2:15:JDFS-36,,"Vědomice,rozc.0.7",,,,667,,0,,Europe/Prague,0,
2:15:JDFS-34,,"Štětí,sídliště",,,,651,,0,,Europe/Prague,0,
2:15:JDFS-33,,"Štětí,hotelový dům",,,,651,,0,,Europe/Prague,0,
2:15:JDFS-31,,"Budyně n.Ohří,Roudníček",,,,771,,0,,Europe/Prague,0,
2:15:JDFS-3,,"Budyně n.Ohří,Břežany n.Ohří",,,,771,,0,,Europe/Prague,0,
2:15:JDFS-26,,Radovesice,,50.41117,14.068567,729,,0,,Europe/Prague,0,
2:15:JDFS-25,,Přestavlky,,,,772,,0,,Europe/Prague,0,
2:15:JDFS-22,,"Mšené-lázně,Podbradec",,,,777,,0,,Europe/Prague,0,
2:15:JDFS-21,,"Budyně n.Ohří,Písty",,,,771,,0,,Europe/Prague,0,
2:15:JDFS-20,,"Budyně n.Ohří,Nížebohy",,,,771,,0,,Europe/Prague,0,
2:15:JDFS-2,,"Brzánky,rozc.",,,,668,,0,,Europe/Prague,0,
2:15:JDFS-19,,"Vrbice,Mastířovice,rozc.",,,,656,,0,,Europe/Prague,0,
2:15:JDFS-18,,"Libochovice,žel.zast.město",,,,721,,0,,Europe/Prague,0,
2:15:JDFS-17,,"Libochovice,škola",,,,721,,0,,Europe/Prague,0,
2:15:JDFS-16,,"Libochovice,cukrovar",,50.407568,14.053284,721,,0,,Europe/Prague,0,
2:15:JDFS-15,,"Libochovice,aut.nádr.",,,,721,,0,,Europe/Prague,0,
2:15:JDFS-14,,Kyškovice,,,,667,,0,,Europe/Prague,0,
2:15:JDFS-13,,"Budyně n.Ohří,Kostelec n.Ohří",,,,771,,0,,Europe/Prague,0,
2:15:JDFS-12,,"Hoštka,žel.st.",,,,654,,0,,Europe/Prague,0,
2:15:JDFS-11,,"Hoštka,nám.",,,,654,,0,,Europe/Prague,0,
2:15:JDFS-10,,"Hoštka,Na vyhlídce",,,,654,,0,,Europe/Prague,0,
2:15:JDFS-1,,"Mšené-lázně,Brníkov",,,,778,,0,,Europe/Prague,0,
2:16:JDFS-9,,"Jirkov,žel.st.",,,,511,,0,,Europe/Prague,0,
2:16:JDFS-8,,"Jirkov,osada",,50.506521,13.446326,511,,0,,Europe/Prague,0,
2:16:JDFS-7,,"Jirkov,Červenohrádecká",,,,511,,0,,Europe/Prague,0,
2:16:JDFS-6,,"Jirkov,aut.nádr.",,,,511,,0,,Europe/Prague,0,
2:16:JDFS-4,,"Chomutov,Písečná",,,,501,,0,,Europe/Prague,0,
2:16:JDFS-31,,"Bitozeves,Triangle-střed",,,,917,,0,,Europe/Prague,0,
2:16:JDFS-28,,"Chomutov,Aquasvět",,,,501,,0,,Europe/Prague,0,
2:16:JDFS-25,,"Chomutov,Gymnázium",,,,501,,0,,Europe/Prague,0,
2:16:JDFS-24,,"Jirkov,Dvořákova",,,,511,,0,,Europe/Prague,0,
2:16:JDFS-23,,"Chomutov,Mostecká",,50.463,13.419127,501,,0,,Europe/Prague,0,
2:16:JDFS-22,,"Most,Obchodní dům PRIOR",,,,201,,0,,Europe/Prague,0,
2:16:JDFS-21,,"Most,Nemocnice",,50.50865,13.626914,201,,0,,Europe/Prague,0,
2:16:JDFS-2,,Drmaly,,50.522423,13.458028,571,,0,,Europe/Prague,0,
2:16:JDFS-19,,"Most,nádraží",,,,201,,0,,Europe/Prague,0,
2:16:JDFS-18,,"Třebušice,MUS-DTS Vrbenský",,,,211,,0,,Europe/Prague,0,
2:16:JDFS-17,,"Most,Pod Resslem",,50.511925,13.623421,201,,0,,Europe/Prague,0,
2:16:JDFS-16,,"Most,Sever",,50.507703,13.654835,201,,0,,Europe/Prague,0,
2:16:JDFS-15,,"Vysoká Pec,rozc.1.0",,50.51296,13.468949,573,,0,,Europe/Prague,0,
2:16:JDFS-14,,Vysoká Pec,,,,571,,0,,Europe/Prague,0,
2:16:JDFS-13,,Otvice,,50.479736,13.450988,501,,0,,Europe/Prague,0,
2:16:JDFS-12,,Nové Ervěnice,,,,511,,0,,Europe/Prague,0,
2:16:JDFS-11,,"Komořany,DUK",,,,211,,0,,Europe/Prague,0,
2:16:JDFS-10,,Komořany,,,,211,,0,,Europe/Prague,0,
2:16:JDFS-1,,Červený Hrádek,,,,511,,0,,Europe/Prague,0,
2:17:JDFS-9,,"Most,1.nám.",,,,201,,0,,Europe/Prague,0,
2:17:JDFS-8,,Bylany,,50.466933,13.60462,208,,0,,Europe/Prague,0,
2:17:JDFS-7,,Malé Březno,,,,208,,0,,Europe/Prague,0,
2:17:JDFS-6,,"Liběšice,kaplička",,,,232,,0,,Europe/Prague,0,
2:17:JDFS-5,,Hošnice,,,,574,,0,,Europe/Prague,0,
2:17:JDFS-4,,"Čepirohy,ZK",,,,201,,0,,Europe/Prague,0,
2:17:JDFS-3,,"Čepirohy,Hrabák",,,,201,,0,,Europe/Prague,0,
2:17:JDFS-2,,"Braňany,závod",,,,231,,0,,Europe/Prague,0,
2:17:JDFS-17,,"Želenice,štěrkovna",,,,232,,0,,Europe/Prague,0,
2:17:JDFS-16,,Želenice,,,,232,,0,,Europe/Prague,0,
2:17:JDFS-15,,Vysoké Březno,,,,208,,0,,Europe/Prague,0,
2:17:JDFS-14,,"Velebudice,rozc.0.5",,50.48578,13.634816,201,,0,,Europe/Prague,0,
2:17:JDFS-13,,"Strupčice,škola",,,,574,,0,,Europe/Prague,0,
2:17:JDFS-12,,Strupčice,,,,574,,0,,Europe/Prague,0,
2:17:JDFS-11,,Obrnice,,50.50503,13.697555,201,,0,,Europe/Prague,0,
2:17:JDFS-10,,"Most,Čs.mládeže",,,,201,,0,,Europe/Prague,0,
2:17:JDFS-1,,Braňany,,,,231,,0,,Europe/Prague,0,
2:18:JDFS-9,,"Chudoslavice,Myštice,rozc.0.5",,50.570145,14.187486,623,,0,,Europe/Prague,0,
2:18:JDFS-8,,"Lovečkovice,Mukařov,rozc.0.4",,,,641,,0,,Europe/Prague,0,
2:18:JDFS-7,,Lovečkovice,,,,641,,0,,Europe/Prague,0,
2:18:JDFS-6,,"Litoměřice,Daliborova",,,,601,,0,,Europe/Prague,0,
2:18:JDFS-5,,"Litoměřice,aut.nádr.",,,,601,,0,,Europe/Prague,0,
2:18:JDFS-4,,"Lovečkovice,Levínské Petrovice,rozc.",,,,641,,0,,Europe/Prague,0,
2:18:JDFS-3,,Chudoslavice,,50.583349,14.187432,623,,0,,Europe/Prague,0,
2:18:JDFS-26,,"Litoměřice,katastrální úřad",,,,601,,0,,Europe/Prague,0,
2:18:JDFS-25,,"Třebušín,Horní Týnec",,,,621,,0,,Europe/Prague,0,
2:18:JDFS-24,,"Třebušín,Dolní Týnec",,,,621,,0,,Europe/Prague,0,
2:18:JDFS-23,,"Třebušín,pečovatelský dům",,,,621,,0,,Europe/Prague,0,
2:18:JDFS-22,,"Žitenice,Pohořanská",,,,625,,0,,Europe/Prague,0,
2:18:JDFS-21,,Žitenice,,,,625,,0,,Europe/Prague,0,
2:18:JDFS-20,,"Třebušín,Všeradiště rozc.0.5",,,,621,,0,,Europe/Prague,0,
2:18:JDFS-2,,"Bohušovice n.Ohří,žel.st.",,,,761,,0,,Europe/Prague,0,
2:18:JDFS-19,,Verneřice,,,,336,,0,,Europe/Prague,0,
2:18:JDFS-18,,Třebušín,,,,621,,0,,Europe/Prague,0,
2:18:JDFS-17,,"Terezín,křiž.",,,,763,,0,,Europe/Prague,0,
2:18:JDFS-16,,"Terezín,aut.nádr.",,,,763,,0,,Europe/Prague,0,
2:18:JDFS-15,,"Ploskovice,Těchobuzice",,,,622,,0,,Europe/Prague,0,
2:18:JDFS-14,,"Staňkovice,rozc.",,,,623,,0,,Europe/Prague,0,
2:18:JDFS-13,,"Staňkovice,mlýn",,,,624,,0,,Europe/Prague,0,
2:18:JDFS-12,,"Bohušovice n.Ohří,záv.",,,,763,,0,,Europe/Prague,0,
2:18:JDFS-11,,"Žitenice,Pohořany",,,,625,,0,,Europe/Prague,0,
2:18:JDFS-10,,Ploskovice,,50.560527,14.198946,622,,0,,Europe/Prague,0,
2:32:JDFS-6,,"Žatec,Lučanská",,,,901,,0,,Europe/Prague,0,
2:18:JDFS-1,,"Bohušovice n.Ohří,sídliště",,,,761,,0,,Europe/Prague,0,
2:19:JDFS-7,,"Litvínov,nám.Míru",,,,221,,0,,Europe/Prague,0,
2:19:JDFS-6,,"Litvínov,nádraží",,,,221,,0,,Europe/Prague,0,
2:19:JDFS-5,,"Havraň,škola",,,,202,,0,,Europe/Prague,0,
2:19:JDFS-4,,Havraň,,,,202,,0,,Europe/Prague,0,
2:19:JDFS-3,,"Most,Zimní stadion",,50.513432,13.646031,201,,0,,Europe/Prague,0,
2:19:JDFS-13,,"Most,Sportovní hala",,50.510524,13.643055,201,,0,,Europe/Prague,0,
2:20:JDFS-9,,"Liběšice,Trnobrany",,,,635,,0,,Europe/Prague,0,
2:20:JDFS-8,,"Liběšice,Srdov",,,,635,,0,,Europe/Prague,0,
2:20:JDFS-7,,"Lovečkovice,Lukavice",,,,641,,0,,Europe/Prague,0,
2:20:JDFS-5,,"Liběšice,škola",,,,635,,0,,Europe/Prague,0,
2:20:JDFS-4,,Liběšice,,,,635,,0,,Europe/Prague,0,
2:20:JDFS-3,,"Lovečkovice,Klínky",,,,641,,0,,Europe/Prague,0,
2:20:JDFS-2,,"Úštěk,Hradec",,,,642,,0,,Europe/Prague,0,
2:20:JDFS-11,,"Liběšice,žel.st.",,,,635,,0,,Europe/Prague,0,
2:20:JDFS-10,,"Lovečkovice,Touchořiny",,,,641,,0,,Europe/Prague,0,
2:20:JDFS-1,,"Levín,Horní Vysoké",,,,642,,0,,Europe/Prague,0,
2:22:JDFS-9,,"Řehlovice,Lány dolní",,,,112,,0,,Europe/Prague,0,
2:22:JDFS-8,,Řehlovice,,,,"112,112",,0,,Europe/Prague,0,
2:22:JDFS-7,,"Řehlovice,Radejčín",,,,116,,0,,Europe/Prague,0,
2:22:JDFS-6,,"Řehlovice,Hliňany",,,,"112,112",,0,,Europe/Prague,0,
2:22:JDFS-5,,"Řehlovice,Habří",,,,112,,0,,Europe/Prague,0,
2:22:JDFS-4,,"Řehlovice,Stadice,Pelikánův mlýn",,,,112,,0,,Europe/Prague,0,
2:22:JDFS-3,,Habrovany,,50.597171,13.980771,115,,0,,Europe/Prague,0,
2:22:JDFS-23,,"Řehlovice,žel.st.",,,,"112,112",,0,,Europe/Prague,0,
2:22:JDFS-22,,"Ústí n.L.,Pětidomí",,,,101,,0,,Europe/Prague,0,
2:22:JDFS-20,,"Řehlovice,Brozánky",,,,112,,0,,Europe/Prague,0,
2:22:JDFS-2,,"Řehlovice,Dubice,Dubičky",,,,116,,0,,Europe/Prague,0,
2:22:JDFS-19,,"Trmice,Zámecká",,,,101,,0,,Europe/Prague,0,
2:22:JDFS-18,,"Trmice,Za Humny",,50.642624,14.002744,101,,0,,Europe/Prague,0,
2:22:JDFS-17,,"Trmice,Nová škola",,,,101,,0,,Europe/Prague,0,
2:22:JDFS-16,,"Trmice,Bělský můstek",,,,101,,0,,Europe/Prague,0,
2:22:JDFS-15,,"Ústí n.L.,Nové Předlice",,,,101,,0,,Europe/Prague,0,
2:22:JDFS-13,,"Trmice,stará škola",,,,101,,0,,Europe/Prague,0,
2:22:JDFS-12,,"Trmice,Globus",,50.651067,14.003348,101,,0,,Europe/Prague,0,
2:22:JDFS-10,,"Ústí n.L.,západní nádr.",,,,101,,0,,Europe/Prague,0,
2:22:JDFS-1,,"Řehlovice,Dubice",,,,116,,0,,Europe/Prague,0,
2:23:JDFS-9,,"Zálužice,Stekník",,,,843,,0,,Europe/Prague,0,
2:23:JDFS-8,,"Postoloprty,Skupice",,50.336052,13.69817,842,,0,,Europe/Prague,0,
2:23:JDFS-7,,"Postoloprty,Mradice,mlýn",,50.330555,13.677936,842,,0,,Europe/Prague,0,
2:23:JDFS-6,,"Postoloprty,Mradice",,50.330555,13.677936,842,,0,,Europe/Prague,0,
2:23:JDFS-5,,"Postoloprty,Malnice",,50.334488,13.715659,842,,0,,Europe/Prague,0,
2:23:JDFS-16,,"Lipno,Drahomyšl,kaplička",,,,846,,0,,Europe/Prague,0,
2:23:JDFS-15,,"Žatec,u hřbitova",,,,901,,0,,Europe/Prague,0,
2:23:JDFS-13,,"Jimlín,Zeměchy",,,,841,,0,,Europe/Prague,0,
2:23:JDFS-12,,"Zálužice,rozc.",,,,843,,0,,Europe/Prague,0,
2:23:JDFS-11,,"Žatec,Trnovany",,,,901,,0,,Europe/Prague,0,
2:23:JDFS-10,,"Postoloprty,Strkovice",,50.32564,13.649752,842,,0,,Europe/Prague,0,
2:23:JDFS-1,,"Postoloprty,Hradiště",,,,842,,0,,Europe/Prague,0,
2:24:JDFS-8,,"Chomutov,Písečná I-13",,,,501,,0,,Europe/Prague,0,
2:24:JDFS-7,,"Chomutov,Lesopark u lávky",,,,501,,0,,Europe/Prague,0,
2:24:JDFS-5,,"Hamr,škola",,,,221,,0,,Europe/Prague,0,
2:24:JDFS-4,,Hamr,,50.592442,13.574226,221,,0,,Europe/Prague,0,
2:24:JDFS-3,,"Ervěnice,záv.ČSA",,,,211,,0,,Europe/Prague,0,
2:24:JDFS-29,,"Chomutov,Zoopark",,50.477488,13.419961,501,,0,,Europe/Prague,0,
2:24:JDFS-28,,"Chomutov,Zborovská",,50.462368,13.410154,501,,0,,Europe/Prague,0,
2:24:JDFS-26,,"Chomutov,žel.zast.",,,,501,,0,,Europe/Prague,0,
2:24:JDFS-25,,"Janov,konečná",,,,221,,0,,Europe/Prague,0,
2:24:JDFS-24,,"Záluží,CHEMOPETROL",,,,211,,0,,Europe/Prague,0,
2:24:JDFS-20,,"Litvínov,Krušnohor",,,,221,,0,,Europe/Prague,0,
2:24:JDFS-17,,"Komořany,tábor 7",,,,211,,0,,Europe/Prague,0,
2:24:JDFS-16,,"Komořany,Obránců míru",,,,211,,0,,Europe/Prague,0,
2:24:JDFS-15,,"Komořany,KSK",,,,211,,0,,Europe/Prague,0,
2:24:JDFS-13,,"Jirkov,školky",,,,511,,0,,Europe/Prague,0,
2:25:JDFS-9,,"Osek,klášter",,,,443,,0,,Europe/Prague,0,
2:25:JDFS-7,,"Lom,nám.",,,,221,,0,,Europe/Prague,0,
2:25:JDFS-6,,"Lom,Červený kříž",,,,221,,0,,Europe/Prague,0,
2:25:JDFS-5,,"Litvínov,u hřbitova",,,,221,,0,,Europe/Prague,0,
2:25:JDFS-4,,"Litvínov,Jiráskova",,,,221,,0,,Europe/Prague,0,
2:25:JDFS-2,,"Osek,Dlouhá Louka,háj.",,,,443,,0,,Europe/Prague,0,
2:25:JDFS-11,,"Litvínov,prům.zóna",,,,221,,0,,Europe/Prague,0,
2:25:JDFS-10,,"Osek,autokempink",,50.622612,13.686856,443,,0,,Europe/Prague,0,
2:25:JDFS-1,,"Osek,Dlouhá Louka",,50.65034,13.6469469,443,,0,,Europe/Prague,0,
2:26:JDFS-9,,"Třebenice,Medvědice",,,,736,,0,,Europe/Prague,0,
2:26:JDFS-5,,"Třebenice,Lipá",,,,736,,0,,Europe/Prague,0,
2:26:JDFS-4,,"Třebenice,Kololeč,rozc.",,,,731,,0,,Europe/Prague,0,
2:26:JDFS-3,,Jenčice,,,,732,,0,,Europe/Prague,0,
2:26:JDFS-20,,"Třebenice,Dlažkovická",,,,731,,0,,Europe/Prague,0,
2:26:JDFS-2,,Dlažkovice,,,,733,,0,,Europe/Prague,0,
2:26:JDFS-18,,"Třebenice,Kocourov",,,,736,,0,,Europe/Prague,0,
2:26:JDFS-17,,"Vlastislav,rozc.",,50.493935,13.957901,735,,0,,Europe/Prague,0,
2:32:JDFS-5,,"Žatec,Havlíčkovo nám.",,,,901,,0,,Europe/Prague,0,
2:26:JDFS-16,,Vlastislav,,50.497048,13.95544,735,,0,,Europe/Prague,0,
2:26:JDFS-15,,"Třebenice,váha",,,,731,,0,,Europe/Prague,0,
2:26:JDFS-14,,"Třebenice,nám.",,,,731,,0,,Europe/Prague,0,
2:26:JDFS-13,,"Třebenice,Teplá",,,,731,,0,,Europe/Prague,0,
2:26:JDFS-12,,Sulejovice,,50.499692,14.034889,715,,0,,Europe/Prague,0,
2:26:JDFS-11,,Podsedice,,50.470702,13.953345,734,,0,,Europe/Prague,0,
2:26:JDFS-10,,"Třebenice,Mrsklesy",,,,736,,0,,Europe/Prague,0,
2:26:JDFS-1,,"Čížkovice,hl.sil.",,,,711,,0,,Europe/Prague,0,
2:27:JDFS-9,,"Dobroměřice,ZZN",,,,856,,0,,Europe/Prague,0,
2:27:JDFS-8,,"Dobroměřice,U Kádnera",,,,856,,0,,Europe/Prague,0,
2:27:JDFS-7,,"Dobroměřice,STS",,,,856,,0,,Europe/Prague,0,
2:27:JDFS-6,,"Dobroměřice,Jednota",,,,856,,0,,Europe/Prague,0,
2:27:JDFS-5,,Dobroměřice,,,,856,,0,,Europe/Prague,0,
2:27:JDFS-37,,"Blažim,kostel",,,,816,,0,,Europe/Prague,0,
2:27:JDFS-36,,"Havraň,ke hřbitovu",,,,202,,0,,Europe/Prague,0,
2:27:JDFS-35,,"Lenešice,Na Samotě",,,,852,,0,,Europe/Prague,0,
2:27:JDFS-32,,"Louny,Osvoboditelů",,50.355471,13.803235,801,,0,,Europe/Prague,0,
2:27:JDFS-29,,Výškov,,,,815,,0,,Europe/Prague,0,
2:27:JDFS-27,,"Postoloprty,Rvenice",,50.37246,13.680228,811,,0,,Europe/Prague,0,
2:27:JDFS-26,,"Postoloprty,nám.",,,,811,,0,,Europe/Prague,0,
2:27:JDFS-24,,"Výškov,Počerady,Elna",,,,243,,0,,Europe/Prague,0,
2:27:JDFS-23,,"Výškov,Počerady",,,,815,,0,,Europe/Prague,0,
2:27:JDFS-20,,Moravěves,,,,202,,0,,Europe/Prague,0,
2:27:JDFS-2,,"Břvany,host.",,,,857,,0,,Europe/Prague,0,
2:27:JDFS-19,,"Louny,Žižkova",,,,801,,0,,Europe/Prague,0,
2:27:JDFS-18,,"Louny,otočka u kotelny",,,,801,,0,,Europe/Prague,0,
2:27:JDFS-16,,"Lenešice,žel.st.",,,,852,,0,,Europe/Prague,0,
2:27:JDFS-15,,"Lenešice,ovčín",,,,852,,0,,Europe/Prague,0,
2:27:JDFS-14,,"Lenešice,osada Mlýnek",,,,852,,0,,Europe/Prague,0,
2:27:JDFS-13,,"Lenešice,nám.",,,,852,,0,,Europe/Prague,0,
2:27:JDFS-12,,"Lenešice,nákup.stř.",,,,852,,0,,Europe/Prague,0,
2:27:JDFS-1,,Blažim,,,,816,,0,,Europe/Prague,0,
2:28:JDFS-6,,"Dolní Poustevna,žel.st.",,,,397,,0,,Europe/Prague,0,
2:28:JDFS-5,,"Dolní Poustevna,Markéta,odb.",,,,397,,0,,Europe/Prague,0,
2:28:JDFS-4,,"Dolní Poustevna,Horní Poustevna",,,,397,,0,,Europe/Prague,0,
2:28:JDFS-3,,"Lobendava,rybník",,,,396,,0,,Europe/Prague,0,
2:28:JDFS-2,,Lobendava,,51.019727,14.316456,396,,0,,Europe/Prague,0,
2:28:JDFS-1,,"Dolní Poustevna,střed",,,,397,,0,,Europe/Prague,0,
2:29:JDFS-7,,"Přestanov,U Pomníku",,,,122,,0,,Europe/Prague,0,
2:29:JDFS-5,,Přestanov,,,,122,,0,,Europe/Prague,0,
2:29:JDFS-37,,"Krupka,Soběchleby,zahr.kolonie",,50.674877,13.897309,431,,0,,Europe/Prague,0,
2:29:JDFS-34,,"Dubí,Pozorka,Lesní brána",,,,421,,0,,Europe/Prague,0,
2:29:JDFS-33,,"Dubí,Pozorka,supermarket",,50.659894,13.801071,421,,0,,Europe/Prague,0,
2:29:JDFS-3,,Chlumec,,50.697475,13.940577,121,,0,,Europe/Prague,0,
2:29:JDFS-25,,"Teplice,Lesní brána nádr.",,,,401,,0,,Europe/Prague,0,
2:29:JDFS-22,,"Krupka,Unčín,U parku",,,,431,,0,,Europe/Prague,0,
2:29:JDFS-21,,"Krupka,Unčín,U Lípy",,,,431,,0,,Europe/Prague,0,
2:29:JDFS-20,,"Krupka,Soběchleby,točna",,,,431,,0,,Europe/Prague,0,
2:29:JDFS-19,,"Krupka,Soběchleby",,,,431,,0,,Europe/Prague,0,
2:29:JDFS-18,,"Krupka,Maršov,škola",,,,431,,0,,Europe/Prague,0,
2:29:JDFS-16,,"Krupka,Bohosudov,Komenského",,50.68433,13.880471,431,,0,,Europe/Prague,0,
2:30:JDFS-9,,"Děčín,Kristin Hrádek,rozc.",,,,301,,0,,Europe/Prague,0,
2:30:JDFS-8,,"Děčín,Přípeř",,,,301,,0,,Europe/Prague,0,
2:30:JDFS-7,,"Děčín,Jalůvčí,rozc.",,,,301,,0,,Europe/Prague,0,
2:30:JDFS-6,,"Děčín,Zotavovna",,,,301,,0,,Europe/Prague,0,
2:30:JDFS-5,,"Děčín,U mostu",,,,301,,0,,Europe/Prague,0,
2:30:JDFS-4,,"Děčín,Tyršův most",,,,301,,0,,Europe/Prague,0,
2:30:JDFS-3,,"Děčín,Marešova školka",,,,301,,0,,Europe/Prague,0,
2:30:JDFS-14,,"Jílové,Sněžník,rest.Hraničář",,,,313,,0,,Europe/Prague,0,
2:30:JDFS-13,,"Jílové,Sněžník",,,,313,,0,,Europe/Prague,0,
2:30:JDFS-12,,"Jílové,Sněžník,lesní správa",,,,313,,0,,Europe/Prague,0,
2:30:JDFS-11,,"Jílové,Sněžník,celnice",,,,313,,0,,Europe/Prague,0,
2:30:JDFS-10,,"Děčín,Maxičky",,,,301,,0,,Europe/Prague,0,
2:31:JDFS-9,,"Vejprty,Přísečnická",,,,551,,0,,Europe/Prague,0,
2:31:JDFS-8,,"Vejprty,háj.",,,,551,,0,,Europe/Prague,0,
2:31:JDFS-6,,"Kryštofovy Hamry,rozc.3.0",,50.485775,13.107508,552,,0,,Europe/Prague,0,
2:31:JDFS-5,,"Kryštofovy Hamry,přehrada",,,,"558,558",,0,,Europe/Prague,0,
2:31:JDFS-4,,Kryštofovy Hamry,,,,558,,0,,Europe/Prague,0,
2:31:JDFS-3,,"Chomutov,V Alejích",,,,501,,0,,Europe/Prague,0,
2:31:JDFS-18,,"Chomutov,Jitřenka",,,,501,,0,,Europe/Prague,0,
2:31:JDFS-17,,"Výsluní,Třebíška,rozc.",,,,527,,0,,Europe/Prague,0,
2:31:JDFS-16,,"Křimov,Celná",,,,521,,0,,Europe/Prague,0,
2:31:JDFS-15,,"Chomutov,Černovická",,,,501,,0,,Europe/Prague,0,
2:31:JDFS-14,,"Chomutov,Bezručova",,,,501,,0,,Europe/Prague,0,
2:31:JDFS-13,,"Chomutov,Lipská I",,50.461525,13.408462,501,,0,,Europe/Prague,0,
2:31:JDFS-12,,"Výsluní,Volyně,rozc.",,,,558,,0,,Europe/Prague,0,
2:31:JDFS-11,,"Výsluní,Kýšovice",,,,527,,0,,Europe/Prague,0,
2:31:JDFS-10,,Výsluní,,,,527,,0,,Europe/Prague,0,
2:31:JDFS-1,,Černý Potok,,,,552,,0,,Europe/Prague,0,
2:32:JDFS-9,,"Žatec,Bonex",,,,901,,0,,Europe/Prague,0,
2:32:JDFS-8,,"Žatec,U výtopny",,,,901,,0,,Europe/Prague,0,
2:32:JDFS-7,,"Žatec,sokolovna",,,,901,,0,,Europe/Prague,0,
2:32:JDFS-3,,"Žatec,Záhoří,rozc.",,,,901,,0,,Europe/Prague,0,
2:32:JDFS-2,,"Žatec,Záhoří",,,,901,,0,,Europe/Prague,0,
2:32:JDFS-12,,"Žatec,Kovářská",,,,901,,0,,Europe/Prague,0,
2:32:JDFS-11,,"Žatec,žel.st.západ",,,,901,,0,,Europe/Prague,0,
2:32:JDFS-10,,"Žatec,Chmelařství",,,,901,,0,,Europe/Prague,0,
2:32:JDFS-1,,"Žiželice,Stroupeč",,,,911,,0,,Europe/Prague,0,
2:33:JDFS-5,,Horní Řepčice,,,,638,,0,,Europe/Prague,0,
2:33:JDFS-4,,"Liběšice,Horní Chobolice",,,,635,,0,,Europe/Prague,0,
2:33:JDFS-3,,"Liběšice,Dolní Řepčice",,,,627,,0,,Europe/Prague,0,
2:33:JDFS-2,,"Liběšice,Dolní Nezly",,,,627,,0,,Europe/Prague,0,
2:33:JDFS-13,,"Liběšice,Soběnice",,,,627,,0,,Europe/Prague,0,
2:33:JDFS-10,,"Liběšice,Mladé",,,,627,,0,,Europe/Prague,0,
2:33:JDFS-1,,Býčkovice,,,,628,,0,,Europe/Prague,0,
2:34:JDFS-9,,"Podbořany,ČSAD",,,,931,,0,,Europe/Prague,0,
2:34:JDFS-8,,"Podbořany,OSP",,,,931,,0,,Europe/Prague,0,
2:34:JDFS-7,,"Podbořany,kafilerie",,,,931,,0,,Europe/Prague,0,
2:34:JDFS-6,,"Vroutek,Lužec",,,,942,,0,,Europe/Prague,0,
2:34:JDFS-5,,"Lubenec,závod",,,,953,,0,,Europe/Prague,0,
2:34:JDFS-4,,"Lubenec,Jelení",,50.125893,13.334988,953,,0,,Europe/Prague,0,
2:34:JDFS-3,,"Lubenec,Libyně",,50.145078,13.314839,953,,0,,Europe/Prague,0,
2:34:JDFS-29,,"Podbořany,aut.nádr. Dělnická",,,,931,,0,,Europe/Prague,0,
2:34:JDFS-28,,"Lubenec,u dálnice",,,,953,,0,,Europe/Prague,0,
2:34:JDFS-26,,"Podbořany,Nádražní",,,,"931,931",,0,,Europe/Prague,0,
2:34:JDFS-25,,"Podbořany,nám.",,,,931,,0,,Europe/Prague,0,
2:34:JDFS-24,,"Lubenec,Pražská",,,,953,,0,,Europe/Prague,0,
2:34:JDFS-23,,"Lubenec,Podbořanská",,,,953,,0,,Europe/Prague,0,
2:34:JDFS-2,,"Lubenec,Ležky",,,,953,,0,,Europe/Prague,0,
2:34:JDFS-19,,"Žatec,Červený hrádek",,,,901,,0,,Europe/Prague,0,
2:34:JDFS-17,,"Vroutek,závod",,,,941,,0,,Europe/Prague,0,
2:34:JDFS-16,,"Vroutek,Karlovarská",,50.17694,13.376598,941,,0,,Europe/Prague,0,
2:34:JDFS-15,,Vroutek,,50.182229,13.377517,941,,0,,Europe/Prague,0,
2:34:JDFS-14,,"Vroutek,Vidhostice",,50.15599,13.372108,942,,0,,Europe/Prague,0,
2:34:JDFS-13,,"Podbořany,Sýrovice",,,,932,,0,,Europe/Prague,0,
2:34:JDFS-12,,"Žatec,Radíčeves",,,,901,,0,,Europe/Prague,0,
2:34:JDFS-11,,"Podbořany,Pšov",,,,932,,0,,Europe/Prague,0,
2:34:JDFS-10,,"Podbořany,Žatecká",,,,931,,0,,Europe/Prague,0,
2:34:JDFS-1,,"Lubenec,Drahonice",,50.147491,13.336657,953,,0,,Europe/Prague,0,
2:35:JDFS-9,,"Hlinná,Tlučeň",,,,603,,0,,Europe/Prague,0,
2:35:JDFS-8,,"Litoměřice,Pokratice,kaplička",,,,601,,0,,Europe/Prague,0,
2:35:JDFS-7,,"Litoměřice,žel.st.hor.",,,,601,,0,,Europe/Prague,0,
2:35:JDFS-6,,"Litoměřice,u závor",,,,601,,0,,Europe/Prague,0,
2:35:JDFS-5,,"Litoměřice,u pošty",,,,601,,0,,Europe/Prague,0,
2:35:JDFS-4,,"Litoměřice,Palachova",,,,601,,0,,Europe/Prague,0,
2:35:JDFS-11,,"Hlinná,rozc.Tlučeň 2.0",,,,603,,0,,Europe/Prague,0,
2:35:JDFS-10,,"Litoměřice,rozc.Mentaurov",,,,601,,0,,Europe/Prague,0,
2:35:JDFS-1,,Hlinná,,,,603,,0,,Europe/Prague,0,
2:36:JDFS-9,,"Louny,Riegrova",,50.356238,13.820102,801,,0,,Europe/Prague,0,
2:36:JDFS-6,,Lipno,,50.298397,13.678813,846,,0,,Europe/Prague,0,
2:36:JDFS-5,,"Lipno,Lipenec",,50.31527,13.704372,846,,0,,Europe/Prague,0,
2:36:JDFS-3,,"Liběšice,Dubčany",,,,844,,0,,Europe/Prague,0,
2:36:JDFS-22,,"Louny,Zahradní město",,,,801,,0,,Europe/Prague,0,
2:36:JDFS-2,,"Lipno,Drahomyšl",,,,846,,0,,Europe/Prague,0,
2:36:JDFS-15,,"Tuchořice,škola",,,,845,,0,,Europe/Prague,0,
2:36:JDFS-14,,"Tuchořice,samota",,,,845,,0,,Europe/Prague,0,
2:36:JDFS-13,,Tuchořice,,,,845,,0,,Europe/Prague,0,
2:36:JDFS-1,,"Liběšice,Dobříčany,rozc.",,,,844,,0,,Europe/Prague,0,
2:37:JDFS-8,,"Libochovice,nám.Svobody",,,,721,,0,,Europe/Prague,0,
2:37:JDFS-6,,Klapý,,,,724,,0,,Europe/Prague,0,
2:37:JDFS-4,,Chodovlice,,50.463379,13.993818,739,,0,,Europe/Prague,0,
2:37:JDFS-3,,"Evaň,Horka",,,,722,,0,,Europe/Prague,0,
2:37:JDFS-2,,Evaň,,,,722,,0,,Europe/Prague,0,
2:37:JDFS-14,,"Libochovice,Poplze",,50.3976,14.043111,721,,0,,Europe/Prague,0,
2:38:JDFS-9,,Vilémov,,,,394,,0,,Europe/Prague,0,
2:38:JDFS-8,,"Velký Šenov,Stap 07",,,,392,,0,,Europe/Prague,0,
2:38:JDFS-7,,"Velký Šenov,Stap",,,,392,,0,,Europe/Prague,0,
2:38:JDFS-6,,"Velký Šenov,nám.",,,,392,,0,,Europe/Prague,0,
2:38:JDFS-5,,"Šluknov,garáže",,,,391,,0,,Europe/Prague,0,
2:38:JDFS-4,,"Šluknov,Budišínská",,,,391,,0,,Europe/Prague,0,
2:38:JDFS-3,,"Mikulášovice,střední-škola",,,,393,,0,,Europe/Prague,0,
2:38:JDFS-2,,"Mikulášovice,Mikov",,,,393,,0,,Europe/Prague,0,
2:38:JDFS-19,,"Šluknov,Císařský,pod Hrazeným",,,,391,,0,,Europe/Prague,0,
2:38:JDFS-18,,"Mikulášovice,U rybníčku",,,,393,,0,,Europe/Prague,0,
2:38:JDFS-17,,"Šluknov,Císařský,odb.lom",,,,391,,0,,Europe/Prague,0,
2:38:JDFS-16,,"Mikulášovice,žel.st.dolní nádraží",,,,393,,0,,Europe/Prague,0,
2:38:JDFS-15,,"Šluknov,Rožany,Bytex",,,,391,,0,,Europe/Prague,0,
2:38:JDFS-14,,"Velký Šenov,Janovka",,,,392,,0,,Europe/Prague,0,
2:38:JDFS-13,,"Velký Šenov,Janovka,rozc.",,,,392,,0,,Europe/Prague,0,
2:38:JDFS-12,,"Šluknov,Rožany",,,,391,,0,,Europe/Prague,0,
2:38:JDFS-11,,"Šluknov,Císařský",,,,391,,0,,Europe/Prague,0,
2:38:JDFS-10,,"Šluknov,zámek-terminál",,,,391,,0,,Europe/Prague,0,
2:38:JDFS-1,,"Mikulášovice,dol.-SAS",,,,393,,0,,Europe/Prague,0,
2:39:JDFS-7,,"Chomutov,Moravská",,50.468157,13.409697,,,0,,Europe/Prague,0,
2:39:JDFS-43,,Droužkovice,,,,,,0,,Europe/Prague,0,
2:39:JDFS-42,,"Droužkovice,hřiště",,,,,,0,,Europe/Prague,0,
2:39:JDFS-41,,"Droužkovice,Letná",,,,,,0,,Europe/Prague,0,
2:39:JDFS-40,,"Chomutov,Rozcestí",,50.44381,13.432621,,,0,,Europe/Prague,0,
2:39:JDFS-4,,Chbany,,50.332583,13.429404,,,0,,Europe/Prague,0,
2:39:JDFS-39,,"Chomutov,Pražská",,,,,,0,,Europe/Prague,0,
2:39:JDFS-38,,"Chomutov,Pražská čerp.st.",,,,,,0,,Europe/Prague,0,
2:39:JDFS-36,,"Vilémov,rozc.",,,,,,0,,Europe/Prague,0,
2:39:JDFS-35,,"Vilémov,Topolanský dvůr",,,,,,0,,Europe/Prague,0,
2:39:JDFS-31,,"Vikletice,přehrada",,,,,,0,,Europe/Prague,0,
2:39:JDFS-30,,"Březno,Vičice,rozc.2.0",,,,,,0,,Europe/Prague,0,
2:39:JDFS-3,,"Droužkovice,ObÚ",,,,,,0,,Europe/Prague,0,
2:39:JDFS-29,,"Březno,Vičice",,,,,,0,,Europe/Prague,0,
2:39:JDFS-28,,"Vadkovice,rozc.",,50.33328,13.387907,,,0,,Europe/Prague,0,
2:39:JDFS-27,,"Tušimice,Sempra",,,,,,0,,Europe/Prague,0,
2:39:JDFS-26,,"Tušimice,II.stavba",,,,,,0,,Europe/Prague,0,
2:39:JDFS-25,,"Tušimice,II.ELNA",,,,,,0,,Europe/Prague,0,
2:39:JDFS-24,,"Tušimice,I.ELNA",,,,,,0,,Europe/Prague,0,
2:39:JDFS-23,,"Tušimice,důl Merkur",,,,,,0,,Europe/Prague,0,
2:39:JDFS-22,,"Březno,Střezov,rozc.0.2",,,,,,0,,Europe/Prague,0,
2:39:JDFS-21,,"Březno,Stranná",,,,,,0,,Europe/Prague,0,
2:39:JDFS-20,,"Soběsuky,rozc.",,,,,,0,,Europe/Prague,0,
2:39:JDFS-2,,"Březno,zdrav.stř.",,,,,,0,,Europe/Prague,0,
2:39:JDFS-19,,Radonice,,50.297855,13.287064,,,0,,Europe/Prague,0,
2:39:JDFS-18,,Račetice,,,,,,0,,Europe/Prague,0,
2:39:JDFS-17,,"Přeskaky,rozc.",,,,,,0,,Europe/Prague,0,
2:39:JDFS-15,,"Nechranice,na mostě",,50.370495,13.419136,,,0,,Europe/Prague,0,
2:39:JDFS-14,,Nechranice,,50.36921,13.4200573,,,0,,Europe/Prague,0,
2:39:JDFS-13,,Libědice,,,,,,0,,Europe/Prague,0,
2:39:JDFS-1,,"Březno,důl",,,,,,0,,Europe/Prague,0,
2:40:JDFS-9,,Krupá,,,,"7,896",,0,,Europe/Prague,0,
2:40:JDFS-8,,"Chrášťany,Nový Dvůr,rozc.",,,,"7,892",,0,,Europe/Prague,0,
2:40:JDFS-7,,Chrášťany,,,,"7,892",,0,,Europe/Prague,0,
2:40:JDFS-6,,"Hředle,pod Džbánem",,,,"8,895",,0,,Europe/Prague,0,
2:40:JDFS-5,,Hředle,,,,"8,895",,0,,Europe/Prague,0,
2:40:JDFS-4,,"Cítoliby,škola",,,,"824,7",,0,,Europe/Prague,0,
2:40:JDFS-36,,"Rakovník,Lišanská",,,,"7,891",,0,,Europe/Prague,0,
2:40:JDFS-34,,"Rakovník,V Jamce",,,,"7,891",,0,,Europe/Prague,0,
2:40:JDFS-33,,"Rakovník,sídl.gen.Kholla",,,,"7,891",,0,,Europe/Prague,0,
2:40:JDFS-32,,"Rakovník,Na Sekyře",,,,"7,891",,0,,Europe/Prague,0,
2:40:JDFS-31,,"Rakovník,Prokopova",,,,"7,891",,0,,Europe/Prague,0,
2:40:JDFS-30,,"Rakovník,žel.zast.západ",,,,"7,891",,0,,Europe/Prague,0,
2:40:JDFS-3,,Cítoliby,,,,"824,7",,0,,Europe/Prague,0,
2:40:JDFS-29,,"Třeboc,obchod",,,,"7,835",,0,,Europe/Prague,0,
2:40:JDFS-28,,"Ročov,Úlovice",,,,"834,8",,0,,Europe/Prague,0,
2:40:JDFS-27,,"Třeboc,Džbán",,,,"7,835",,0,,Europe/Prague,0,
2:40:JDFS-26,,Třeboc,,,,"7,835",,0,,Europe/Prague,0,
2:40:JDFS-25,,"Zbrašín,Senkov,rozc.",,,,"823,9",,0,,Europe/Prague,0,
2:40:JDFS-24,,"Ročov,Třebocká",,,,"834,8",,0,,Europe/Prague,0,
2:40:JDFS-23,,Ročov,,,,"834,8",,0,,Europe/Prague,0,
2:40:JDFS-22,,"Rakovník,Čs.legií",,,,"7,891",,0,,Europe/Prague,0,
2:40:JDFS-21,,"Rakovník,aut.st.",,,,"7,891",,0,,Europe/Prague,0,
2:40:JDFS-20,,"Olešná,Kokrdy",,,,"7,892",,0,,Europe/Prague,0,
2:40:JDFS-2,,"Ročov,Břínkov",,,,"834,8",,0,,Europe/Prague,0,
2:40:JDFS-19,,Olešná,,,,"7,892",,0,,Europe/Prague,0,
2:40:JDFS-18,,"Mutějovice,Na Příči",,,,"8,895",,0,,Europe/Prague,0,
2:40:JDFS-17,,Mutějovice,,,,"8,895",,0,,Europe/Prague,0,
2:40:JDFS-15,,"Louny,U spravedlnosti",,50.3484,13.805899,"801,7",,0,,Europe/Prague,0,
2:40:JDFS-12,,"Líšťany,Hrabačov",,,,"825,8",,0,,Europe/Prague,0,
2:40:JDFS-11,,"Líšťany,Brána",,,,"825,8",,0,,Europe/Prague,0,
2:40:JDFS-10,,Líšťany,,,,"825,8",,0,,Europe/Prague,0,
2:40:JDFS-1,,Brodec,,50.29349,13.796904,"836,9",,0,,Europe/Prague,0,
2:41:JDFS-6,,Nezabylice,,50.422626,13.477496,582,,0,,Europe/Prague,0,
2:41:JDFS-26,,"Hrušovany,křiž.",,,,584,,0,,Europe/Prague,0,
2:41:JDFS-19,,"Nezabylice,Hořenec",,,,582,,0,,Europe/Prague,0,
2:41:JDFS-18,,Bílence,,,,583,,0,,Europe/Prague,0,
2:41:JDFS-15,,"Velemyšleves,Zálezly",,,,912,,0,,Europe/Prague,0,
2:41:JDFS-14,,Všehrdy,,,,581,,0,,Europe/Prague,0,
2:41:JDFS-13,,"Voděrady,rozc.0.6",,,,583,,0,,Europe/Prague,0,
2:41:JDFS-12,,Velemyšleves,,,,912,,0,,Europe/Prague,0,
2:41:JDFS-10,,"Škrle,rozc.1.0",,,,583,,0,,Europe/Prague,0,
2:42:JDFS-6,,"Koštice,samota",,,,866,,0,,Europe/Prague,0,
2:42:JDFS-5,,Koštice,,,,866,,0,,Europe/Prague,0,
2:42:JDFS-25,,Želkovice,,,,858,,0,,Europe/Prague,0,
2:42:JDFS-24,,"Počedělice,Volenice",,,,865,,0,,Europe/Prague,0,
2:42:JDFS-23,,"Koštice,Vojničky",,,,866,,0,,Europe/Prague,0,
2:42:JDFS-22,,"Koštice,Vojnice",,,,866,,0,,Europe/Prague,0,
2:42:JDFS-20,,"Třebívlice,Šepetely,rozc.0.5",,,,751,,0,,Europe/Prague,0,
2:42:JDFS-2,,"Černčice,Prefa",,,,861,,0,,Europe/Prague,0,
2:42:JDFS-19,,"Libčeves,Řisuty",,,,851,,0,,Europe/Prague,0,
2:42:JDFS-18,,Počedělice,,,,865,,0,,Europe/Prague,0,
2:42:JDFS-17,,"Počedělice,Orasice",,,,865,,0,,Europe/Prague,0,
2:42:JDFS-16,,"Obora,Tranzitní plynovod",,50.366432,13.854386,864,,0,,Europe/Prague,0,
2:42:JDFS-15,,Obora,,50.37308,13.862818,864,,0,,Europe/Prague,0,
2:42:JDFS-14,,"Děčany,Lukohořany,rozc.",,,,753,,0,,Europe/Prague,0,
2:43:JDFS-9,,Kostomlaty p.Řípem,,,,697,,0,,Europe/Prague,0,
2:43:JDFS-8,,"Hrobce,žel.st.",,,,663,,0,,Europe/Prague,0,
2:43:JDFS-7,,Hrobce,,50.462577,14.229755,663,,0,,Europe/Prague,0,
2:43:JDFS-6,,"Horní Beřkovice,žel.st.",,,,698,,0,,Europe/Prague,0,
2:43:JDFS-5,,"Horní Beřkovice,ObÚ",,,,698,,0,,Europe/Prague,0,
2:43:JDFS-43,,"Horní Beřkovice,točna",,,,698,,0,,Europe/Prague,0,
2:43:JDFS-42,,"Libkovice p.Řípem,Nad roklí",,,,683,,0,,Europe/Prague,0,
2:43:JDFS-41,,"Litoměřice,obchodní centrum",,,,601,,0,,Europe/Prague,0,
2:43:JDFS-38,,Židovice,,,,662,,0,,Europe/Prague,0,
2:43:JDFS-37,,Travčice,,,,767,,0,,Europe/Prague,0,
2:43:JDFS-36,,"Terezín,škola",,,,763,,0,,Europe/Prague,0,
2:43:JDFS-34,,"Terezín,U Památníku",,,,763,,0,,Europe/Prague,0,
2:43:JDFS-3,,"Terezín,České Kopisty",,,,763,,0,,Europe/Prague,0,
2:43:JDFS-27,,"Roudnice n.L.,Glazura",,50.432297,14.289721,661,,0,,Europe/Prague,0,
2:43:JDFS-26,,"Roudnice n.L.,ČSAD",,,,661,,0,,Europe/Prague,0,
2:43:JDFS-25,,"Roudnice n.L.,Čihadla",,,,661,,0,,Europe/Prague,0,
2:43:JDFS-21,,"Hrobce,Rohatce",,50.460265,14.203448,"663,663",,0,,Europe/Prague,0,
2:43:JDFS-20,,"Bechlín,Předonín,vinice",,,,682,,0,,Europe/Prague,0,
2:43:JDFS-2,,"Bechlín,u Čtvrtečků",,,,682,,0,,Europe/Prague,0,
2:43:JDFS-18,,"Terezín,Počaply,cesta",,,,763,,0,,Europe/Prague,0,
2:43:JDFS-17,,"Terezín,Počaply",,,,763,,0,,Europe/Prague,0,
2:43:JDFS-16,,Oleško,,,,"660,660",,0,,Europe/Prague,0,
2:43:JDFS-15,,"Travčice,Nučničky",,,,767,,0,,Europe/Prague,0,
2:43:JDFS-13,,"Libotenice,hřbitov",,,,669,,0,,Europe/Prague,0,
2:43:JDFS-12,,"Libotenice,drůbežárna",,,,669,,0,,Europe/Prague,0,
2:43:JDFS-11,,Libotenice,,50.476558,14.230034,669,,0,,Europe/Prague,0,
2:43:JDFS-10,,Libkovice p.Řípem,,,,683,,0,,Europe/Prague,0,
2:43:JDFS-1,,"Bechlín,ObÚ",,,,682,,0,,Europe/Prague,0,
2:44:JDFS-9,,"Staňkovice,Selibice",,,,813,,0,,Europe/Prague,0,
2:44:JDFS-8,,"Postoloprty,sídliště",,,,811,,0,,Europe/Prague,0,
2:44:JDFS-7,,"Postoloprty,žel.st.",,,,811,,0,,Europe/Prague,0,
2:44:JDFS-5,,Postoloprty,,50.359226,13.699753,811,,0,,Europe/Prague,0,
2:44:JDFS-4,,"Lišany,záv.",,,,814,,0,,Europe/Prague,0,
2:44:JDFS-3,,Lišany,,,,814,,0,,Europe/Prague,0,
2:44:JDFS-2,,"Postoloprty,Levonice",,50.33808,13.674572,811,,0,,Europe/Prague,0,
2:44:JDFS-14,,"Žatec,Lounská",,,,901,,0,,Europe/Prague,0,
2:44:JDFS-11,,"Staňkovice,Tvršice",,,,813,,0,,Europe/Prague,0,
2:44:JDFS-10,,Staňkovice,,,,813,,0,,Europe/Prague,0,
2:44:JDFS-1,,"Postoloprty,Dolejší Hůrky",,,,814,,0,,Europe/Prague,0,
2:45:JDFS-9,,Místo,,,,526,,0,,Europe/Prague,0,
2:45:JDFS-8,,Málkov,,,,525,,0,,Europe/Prague,0,
2:45:JDFS-4,,"Chomutov,Kadaňská škola",,,,501,,0,,Europe/Prague,0,
2:45:JDFS-30,,"Černovice,hlavní silnice",,,,501,,0,,Europe/Prague,0,
2:45:JDFS-29,,"Chomutov,U Hačky",,,,501,,0,,Europe/Prague,0,
2:45:JDFS-28,,"Místo,výchovný ústav",,,,526,,0,,Europe/Prague,0,
2:45:JDFS-25,,"Místo,Vysoká Jedle",,,,526,,0,,Europe/Prague,0,
2:45:JDFS-24,,"Místo,Blahuňov",,,,526,,0,,Europe/Prague,0,
2:45:JDFS-23,,"Chomutov,poliklinika",,50.4552956,13.40886,501,,0,,Europe/Prague,0,
2:45:JDFS-22,,"Chomutov,u hřbitova",,,,501,,0,,Europe/Prague,0,
2:45:JDFS-21,,"Chomutov,Kadaňská kaplička",,,,501,,0,,Europe/Prague,0,
2:45:JDFS-16,,Zelená,,,,525,,0,,Europe/Prague,0,
2:45:JDFS-1,,"Blahuňov,rozc.1.0",,,,525,,0,,Europe/Prague,0,
2:46:JDFS-2,,"Chotěšov,Brozanská",,,,713,,0,,Europe/Prague,0,
2:46:JDFS-11,,Vrbičany,,,,712,,0,,Europe/Prague,0,
2:46:JDFS-10,,Siřejovice,,,,716,,0,,Europe/Prague,0,
2:46:JDFS-1,,Chotěšov,,,,713,,0,,Europe/Prague,0,
2:47:JDFS-9,,"Doksany,škola",,,,"765,7",,0,,Europe/Prague,0,
2:47:JDFS-7,,"Budyně n.Ohří,Slánská",,,,"771,7",,0,,Europe/Prague,0,
2:47:JDFS-6,,Brozany n.Ohří,,,,"766,8",,0,,Europe/Prague,0,
2:47:JDFS-5,,"Brňany,záv.",,,,"762,8",,0,,Europe/Prague,0,
2:47:JDFS-4,,Brňany,,,,"762,8",,0,,Europe/Prague,0,
2:47:JDFS-37,,"Slaný,Prům.zóna sever",,,,"4,791",,0,,Europe/Prague,0,
2:47:JDFS-34,,"Slaný,Šultysova",,,,"4,791",,0,,Europe/Prague,0,
2:47:JDFS-33,,"Slaný,Želevčice",,,,"4,791",,0,,Europe/Prague,0,
2:47:JDFS-32,,"Zlonice,škola",,,,"5,794",,0,,Europe/Prague,0,
2:47:JDFS-31,,Zlonice,,50.278842,14.080758,"5,794",,0,,Europe/Prague,0,
2:47:JDFS-28,,"Šlapanice,křižovatka",,,,"5,796",,0,,Europe/Prague,0,
2:47:JDFS-27,,"Slaný,Palackého",,,,"4,791",,0,,Europe/Prague,0,
2:47:JDFS-26,,"Slaný,Nosačická",,,,"4,791",,0,,Europe/Prague,0,
2:47:JDFS-25,,"Slaný,aut.nádr.",,,,"4,791",,0,,Europe/Prague,0,
2:47:JDFS-24,,"Brozany n.Ohří,křiž.",,,,"766,8",,0,,Europe/Prague,0,
2:47:JDFS-23,,"Martiněves,Radešín",,,,"779,6",,0,,Europe/Prague,0,
2:47:JDFS-20,,"Mšené-lázně,lázně",,,,"776,6",,0,,Europe/Prague,0,
2:47:JDFS-19,,"Mšené-lázně,u kapličky",,,,"776,6",,0,,Europe/Prague,0,
2:47:JDFS-18,,"Litoměřice,Pokratická",,,,"601,9",,0,,Europe/Prague,0,
2:47:JDFS-11,,"Martiněves,Charvatce",,,,"779,6",,0,,Europe/Prague,0,
2:47:JDFS-10,,"Doksany,zámek",,,,"765,7",,0,,Europe/Prague,0,
2:47:JDFS-1,,"Beřovice,Bakov",,,,"5,794",,0,,Europe/Prague,0,
2:48:JDFS-9,,"Klíny,ObÚ",,,,262,,0,,Europe/Prague,0,
2:48:JDFS-8,,"Klíny,Obora",,,,262,,0,,Europe/Prague,0,
2:48:JDFS-7,,"Klíny,host.",,,,262,,0,,Europe/Prague,0,
2:48:JDFS-6,,"Litvínov,Horní Ves",,,,221,,0,,Europe/Prague,0,
2:48:JDFS-5,,"Český Jiřetín,Fláje,zámeček rozc.",,,,261,,0,,Europe/Prague,0,
2:48:JDFS-4,,"Český Jiřetín,Fláje",,,,261,,0,,Europe/Prague,0,
2:48:JDFS-3,,"Český Jiřetín,u pily",,,,261,,0,,Europe/Prague,0,
2:48:JDFS-2,,"Český Jiřetín,pož.zbroj.",,,,261,,0,,Europe/Prague,0,
2:48:JDFS-19,,"Český Jiřetín,Fláje,přehrada",,,,261,,0,,Europe/Prague,0,
2:48:JDFS-18,,"Litvínov,Máj věž.domy",,,,221,,0,,Europe/Prague,0,
2:48:JDFS-17,,"Klíny,Sedlo",,,,262,,0,,Europe/Prague,0,
2:48:JDFS-16,,"Klíny,Rašov",,,,262,,0,,Europe/Prague,0,
2:48:JDFS-15,,"Litvínov,Písečná",,,,221,,0,,Europe/Prague,0,
2:48:JDFS-11,,"Klíny,Šumenské údolí",,,,262,,0,,Europe/Prague,0,
2:48:JDFS-10,,"Klíny,rozc.Mníšek",,,,262,,0,,Europe/Prague,0,
2:48:JDFS-1,,Český Jiřetín,,,,261,,0,,Europe/Prague,0,
2:49:JDFS-9,,"Velemyšleves,Truzenice",,,,912,,0,,Europe/Prague,0,
2:49:JDFS-6,,"Velemyšleves,Minice,samota",,50.386486,13.569329,912,,0,,Europe/Prague,0,
2:49:JDFS-5,,"Velemyšleves,Minice",,,,912,,0,,Europe/Prague,0,
2:50:JDFS-9,,"Čeradice,Větrušice,návrší",,,,962,,0,,Europe/Prague,0,
2:50:JDFS-8,,"Čeradice,Větrušice",,,,962,,0,,Europe/Prague,0,
2:50:JDFS-7,,"Nové Sedlo,Sedčice",,,,963,,0,,Europe/Prague,0,
2:50:JDFS-6,,"Nové Sedlo,ÚNV",,,,963,,0,,Europe/Prague,0,
2:50:JDFS-5,,Nové Sedlo,,,,963,,0,,Europe/Prague,0,
2:50:JDFS-4,,"Žatec,Kadaňská",,,,901,,0,,Europe/Prague,0,
2:50:JDFS-3,,Libočany,,,,961,,0,,Europe/Prague,0,
2:50:JDFS-2,,Čeradice,,,,962,,0,,Europe/Prague,0,
2:50:JDFS-16,,"Žatec,VÚCh",,,,901,,0,,Europe/Prague,0,
2:50:JDFS-13,,"Žatec,Čeradická",,,,901,,0,,Europe/Prague,0,
2:50:JDFS-11,,"Nové Sedlo,Žabokliky,žel.st.",,,,963,,0,,Europe/Prague,0,
2:50:JDFS-10,,"Nové Sedlo,Žabokliky",,,,963,,0,,Europe/Prague,0,
2:50:JDFS-1,,"Nové Sedlo,Břežany",,,,963,,0,,Europe/Prague,0,
2:51:JDFS-4,,"Petrovice,škola",,,,137,,0,,Europe/Prague,0,
2:51:JDFS-3,,"Petrovice,rozc.Krásný Les",,,,137,,0,,Europe/Prague,0,
2:51:JDFS-2,,"Petrovice,Krásný Les,konečná",,,,125,,0,,Europe/Prague,0,
2:51:JDFS-1,,"Petrovice,Krásný Les",,,,125,,0,,Europe/Prague,0,
2:52:JDFS-9,,Leština,,,,152,,0,,Europe/Prague,0,
2:52:JDFS-8,,"Libouchec,Knínice,rozc.1.0",,50.729527,14.009831,131,,0,,Europe/Prague,0,
2:52:JDFS-7,,"Lovečkovice,Knínice,rozc.",,,,641,,0,,Europe/Prague,0,
2:52:JDFS-63,,"Ústí n.L.,Střekov,K Loděnici",,,,101,,0,,Europe/Prague,0,
2:52:JDFS-62,,"Ústí n.L.,Střekov,ČOV",,,,101,,0,,Europe/Prague,0,
2:52:JDFS-61,,"Bahratal,ZOLL",,,,-  ,,0,,Europe/Prague,0,
2:52:JDFS-60,,"Bahratal,grenzübergang",,50.8154449,13.98154,139,,0,,Europe/Prague,0,
2:52:JDFS-6,,"Lovečkovice,Knínice",,,,641,,0,,Europe/Prague,0,
2:52:JDFS-58,,"Ústí n.L.,Strážky,obec",,,,101,,0,,Europe/Prague,0,
2:52:JDFS-57,,"Ústí n.L.,Božtěšice",,,,101,,0,,Europe/Prague,0,
2:52:JDFS-55,,"Svádov,osada",,,,101,,0,,Europe/Prague,0,
2:52:JDFS-54,,"Ústí n.L.,Olšinky",,,,101,,0,,Europe/Prague,0,
2:52:JDFS-51,,"Libouchec,Žďárek",,,,131,,0,,Europe/Prague,0,
2:52:JDFS-50,,Zubrnice,,50.64855,14.218819,153,,0,,Europe/Prague,0,
2:52:JDFS-48,,"Velké Březno,žel.st.",,,,151,,0,,Europe/Prague,0,
2:52:JDFS-47,,Velké Březno,,,,151,,0,,Europe/Prague,0,
2:52:JDFS-46,,"Velké Březno,Valtířov,žel.st.",,,,151,,0,,Europe/Prague,0,
2:52:JDFS-45,,"Velké Březno,Valtířov,osada",,,,151,,0,,Europe/Prague,0,
2:52:JDFS-44,,"Úštěk,žel.st.",,,,631,,0,,Europe/Prague,0,
2:52:JDFS-43,,"Úštěk,nám.",,,,631,,0,,Europe/Prague,0,
2:52:JDFS-42,,"Úštěk,motel",,,,631,,0,,Europe/Prague,0,
2:52:JDFS-41,,"Úštěk,sídliště",,,,631,,0,,Europe/Prague,0,
2:52:JDFS-38,,"Ústí n.L.,Bukov,městský stadion",,,,101,,0,,Europe/Prague,0,
2:52:JDFS-37,,"Ústí n.L.,poliklinika",,,,101,,0,,Europe/Prague,0,
2:52:JDFS-36,,"Ústí n.L.,pod Holoměří",,,,101,,0,,Europe/Prague,0,
2:52:JDFS-35,,"Ústí n.L.,Božtěšická",,,,101,,0,,Europe/Prague,0,
2:52:JDFS-34,,"Ústí n.L.,Beethovenova",,,,101,,0,,Europe/Prague,0,
2:52:JDFS-33,,"Zubrnice,Týniště",,,,153,,0,,Europe/Prague,0,
2:52:JDFS-32,,"Tisá,statek",,,,135,,0,,Europe/Prague,0,
2:52:JDFS-31,,"Tisá,rozc.Sněžník 5.0",,,,135,,0,,Europe/Prague,0,
2:52:JDFS-30,,"Tisá,rozc.Antonínov 0.5",,,,135,,0,,Europe/Prague,0,
2:52:JDFS-29,,"Tisá,kult.dům",,,,135,,0,,Europe/Prague,0,
2:52:JDFS-28,,"Tisá,dětský domov",,,,135,,0,,Europe/Prague,0,
2:52:JDFS-27,,"Svádov,žel.st.",,,,101,,0,,Europe/Prague,0,
2:52:JDFS-26,,"Petrovice,záv.",,,,137,,0,,Europe/Prague,0,
2:52:JDFS-25,,"Petrovice,u Marvanů",,50.7959,13.977123,137,,0,,Europe/Prague,0,
2:52:JDFS-24,,"Petrovice,u dubu",,50.804238,13.97955,137,,0,,Europe/Prague,0,
2:52:JDFS-21,,"Petrovice,konečná",,,,137,,0,,Europe/Prague,0,
2:52:JDFS-20,,"Petrovice,CLO",,,,-  ,,0,,Europe/Prague,0,
2:52:JDFS-2,,"Úštěk,Habřina",,,,631,,0,,Europe/Prague,0,
2:52:JDFS-12,,"Libouchec,Nový Libouchec",,50.775415,14.037205,131,,0,,Europe/Prague,0,
2:52:JDFS-10,,"Leština,host.",,,,152,,0,,Europe/Prague,0,
2:52:JDFS-1,,"Úštěk,Dolní Vysoké",,,,631,,0,,Europe/Prague,0,
2:53:JDFS-9,,Široké Třebčice,,,,565,,0,,Europe/Prague,0,
2:53:JDFS-8,,Rokle,,50.353397,13.297654,"562,562",,0,,Europe/Prague,0,
2:53:JDFS-5,,"Podbořany,aut.nádr.",,,,931,,0,,Europe/Prague,0,
2:53:JDFS-4,,Pětipsy,,,,563,,0,,Europe/Prague,0,
2:53:JDFS-2,,"Kadaň,u mostu",,50.37566,13.274507,531,,0,,Europe/Prague,0,
2:53:JDFS-17,,"Rokle,Hradec,rozvodna",,50.34124,13.323498,562,,0,,Europe/Prague,0,
2:53:JDFS-16,,"Rokle,Hradec",,50.3586922,13.31573,562,,0,,Europe/Prague,0,
2:53:JDFS-13,,"Želina,rozc.",,,,562,,0,,Europe/Prague,0,
2:87:JDFS-3,,"Doubice,u háj.",,,,387,,0,,Europe/Prague,0,
2:53:JDFS-12,,"Krásný Dvůr,Zlovědice,rozc.",,,,933,,0,,Europe/Prague,0,
2:53:JDFS-11,,"Krásný Dvůr,Vysoké Třebušice",,,,933,,0,,Europe/Prague,0,
2:53:JDFS-10,,"Veliká Ves,rozc.1.0",,50.269736,13.388881,565,,0,,Europe/Prague,0,
2:54:JDFS-8,,Nové Třebčice,,,,565,,0,,Europe/Prague,0,
2:54:JDFS-7,,"Podbořany,Mory",,,,932,,0,,Europe/Prague,0,
2:54:JDFS-6,,Krásný Dvůr,,,,933,,0,,Europe/Prague,0,
2:54:JDFS-5,,"Podbořany,Kněžice",,,,932,,0,,Europe/Prague,0,
2:54:JDFS-4,,"Krásný Dvůr,Chrášťany",,,,933,,0,,Europe/Prague,0,
2:54:JDFS-3,,"Krásný Dvůr,Chotěbudice",,,,933,,0,,Europe/Prague,0,
2:54:JDFS-2,,"Podbořany,Hlubany,záv.",,,,931,,0,,Europe/Prague,0,
2:54:JDFS-15,,Vitčice,,,,565,,0,,Europe/Prague,0,
2:54:JDFS-14,,Veliká Ves,,,,565,,0,,Europe/Prague,0,
2:54:JDFS-12,,"Podlesice,školka",,,,565,,0,,Europe/Prague,0,
2:54:JDFS-1,,"Podbořany,Buškovice",,,,931,,0,,Europe/Prague,0,
2:55:JDFS-9,,"Krupka,Vrchoslav,Hor.nám.",,,,431,,0,,Europe/Prague,0,
2:55:JDFS-5,,"Dubí,Běhánky,Pod návrším",,,,421,,0,,Europe/Prague,0,
2:55:JDFS-4,,"Dubí,Běhánky,Dubská",,,,421,,0,,Europe/Prague,0,
2:55:JDFS-3,,"Proboštov,nám.",,,,421,,0,,Europe/Prague,0,
2:55:JDFS-21,,"Dubí,Drahůnky",,,,421,,0,,Europe/Prague,0,
2:55:JDFS-2,,"Proboštov,škola",,,,421,,0,,Europe/Prague,0,
2:55:JDFS-18,,"Proboštov,Přítkov,křiž.",,,,421,,0,,Europe/Prague,0,
2:55:JDFS-16,,"Teplice,Městské sály",,,,401,,0,,Europe/Prague,0,
2:55:JDFS-13,,"Proboštov,teplárna",,,,421,,0,,Europe/Prague,0,
2:55:JDFS-12,,"Proboštov,Přítkovská",,,,421,,0,,Europe/Prague,0,
2:55:JDFS-11,,Proboštov,,,,421,,0,,Europe/Prague,0,
2:55:JDFS-10,,"Proboštov,Přítkov",,,,421,,0,,Europe/Prague,0,
2:56:JDFS-6,,"Hora Sv.Kateřiny,předávací stanice",,,,253,,0,,Europe/Prague,0,
2:56:JDFS-5,,"Hora Sv.Kateřiny,pož.zbroj.",,,,253,,0,,Europe/Prague,0,
2:56:JDFS-4,,"Hora Sv.Kateřiny,nám.",,,,253,,0,,Europe/Prague,0,
2:56:JDFS-3,,"Hora Sv.Kateřiny,Pachenkov",,50.596544,13.448227,253,,0,,Europe/Prague,0,
2:56:JDFS-26,,"Hora Sv.Kateřiny,Malý Háj",,,,253,,0,,Europe/Prague,0,
2:56:JDFS-2,,"Boleboř,rozc.Orasín 1.0",,,,572,,0,,Europe/Prague,0,
2:56:JDFS-17,,Orasín,,,,572,,0,,Europe/Prague,0,
2:56:JDFS-15,,"Malý Háj,Lesná,rozc.",,,,253,,0,,Europe/Prague,0,
2:56:JDFS-14,,"Hora Sv.Kateřiny,rozc.Malý Háj",,,,253,,0,,Europe/Prague,0,
2:56:JDFS-12,,"Jirkov,Jiráskova",,,,511,,0,,Europe/Prague,0,
2:56:JDFS-11,,"Jirkov,Jindřišská",,,,511,,0,,Europe/Prague,0,
2:56:JDFS-1,,Boleboř,,,,572,,0,,Europe/Prague,0,
2:57:JDFS-9,,Mezihoří,,,,522,,0,,Europe/Prague,0,
2:57:JDFS-8,,"Květnov,rozc.1.0",,,,522,,0,,Europe/Prague,0,
2:57:JDFS-7,,Kalek,,50.577966,13.315292,523,,0,,Europe/Prague,0,
2:57:JDFS-6,,"Chomutov,Zátiší",,,,501,,0,,Europe/Prague,0,
2:57:JDFS-4,,"Hradečná,rozc.1.0",,,,522,,0,,Europe/Prague,0,
2:57:JDFS-3,,"Blatno,suška",,,,522,,0,,Europe/Prague,0,
2:57:JDFS-2,,"Blatno,Nový dům rozc.",,,,522,,0,,Europe/Prague,0,
2:57:JDFS-18,,"Chomutov,Kostnická škola",,,,501,,0,,Europe/Prague,0,
2:57:JDFS-16,,"Chomutov,Kostnická",,50.467334,13.399755,501,,0,,Europe/Prague,0,
2:57:JDFS-13,,Zákoutí,,,,522,,0,,Europe/Prague,0,
2:57:JDFS-12,,Radenov,,50.526287,13.361322,522,,0,,Europe/Prague,0,
2:57:JDFS-11,,"Načetín,odb.",,,,523,,0,,Europe/Prague,0,
2:57:JDFS-10,,Načetín,,,,523,,0,,Europe/Prague,0,
2:57:JDFS-1,,Blatno,,50.200018,13.382131,522,,0,,Europe/Prague,0,
2:58:JDFS-7,,"Měcholupy,Velká Černoc",,,,924,,0,,Europe/Prague,0,
2:58:JDFS-6,,"Blšany,Stachov",,,,937,,0,,Europe/Prague,0,
2:58:JDFS-5,,"Blšany,Soběchleby",,,,935,,0,,Europe/Prague,0,
2:58:JDFS-4,,"Podbořany,nem.",,,,931,,0,,Europe/Prague,0,
2:58:JDFS-3,,Očihov,,,,936,,0,,Europe/Prague,0,
2:58:JDFS-2,,"Blšany,Malá Černoc",,,,935,,0,,Europe/Prague,0,
2:58:JDFS-1,,"Blšany,nám.",,,,937,,0,,Europe/Prague,0,
2:59:JDFS-9,,"Hostomice,nám.",,,,481,,0,,Europe/Prague,0,
2:59:JDFS-8,,"Hostomice,nadjezd",,50.589326,13.799043,481,,0,,Europe/Prague,0,
2:59:JDFS-5,,"Bílina,VMG I",,,,461,,0,,Europe/Prague,0,
2:59:JDFS-4,,"Bílina,sídliště",,,,461,,0,,Europe/Prague,0,
2:59:JDFS-33,,"Hrobčice,Mirošovice",,,,473,,0,,Europe/Prague,0,
2:59:JDFS-32,,"Bělušice,ObÚ",,,,245,,0,,Europe/Prague,0,
2:59:JDFS-3,,"Bílina,pož.zbroj.",,,,461,,0,,Europe/Prague,0,
2:59:JDFS-28,,"Bílina,Lidl",,,,461,,0,,Europe/Prague,0,
2:59:JDFS-26,,"Teplice,Bílinská",,,,401,,0,,Europe/Prague,1,
2:59:JDFS-25,,Raná,,,,853,,0,,Europe/Prague,0,
2:59:JDFS-24,,"Bělušice,Odolice,rozc.",,,,245,,0,,Europe/Prague,0,
2:59:JDFS-23,,"Libčeves,Mnichov",,,,851,,0,,Europe/Prague,0,
2:59:JDFS-22,,"Měrunice,rozc.",,,,475,,0,,Europe/Prague,0,
2:59:JDFS-2,,"Bílina,poliklinika",,,,461,,0,,Europe/Prague,0,
2:59:JDFS-19,,"Ledvice,úpravna uhlí",,,,483,,0,,Europe/Prague,0,
2:59:JDFS-18,,Kozly,,50.456996,13.784479,854,,0,,Europe/Prague,0,
2:59:JDFS-17,,Kladruby,,50.611404,13.830398,485,,0,,Europe/Prague,0,
2:59:JDFS-16,,"Chudeřice,záv.",,,,461,,0,,Europe/Prague,0,
2:59:JDFS-15,,"Chudeřice,nám.",,,,461,,0,,Europe/Prague,0,
2:59:JDFS-14,,"Světec,Chotějovice",,,,483,,0,,Europe/Prague,0,
2:59:JDFS-13,,"Libčeves,Charvatce",,,,851,,0,,Europe/Prague,0,
2:59:JDFS-12,,Hrobčice,,,,473,,0,,Europe/Prague,0,
2:59:JDFS-11,,"Hostomice,Tuchlov rozc.",,50.601357,13.808187,482,,0,,Europe/Prague,0,
2:59:JDFS-10,,"Hostomice,sklárna",,,,481,,0,,Europe/Prague,0,
2:59:JDFS-1,,"Bílina,aut.nádr.",,,,461,,0,,Europe/Prague,0,
2:60:JDFS-9,,"Merboltice,host.",,50.69125,14.345604,335,,0,,Europe/Prague,0,
2:60:JDFS-8,,"Merboltice,dol.část",,,,335,,0,,Europe/Prague,0,
2:60:JDFS-7,,"Velká Bukovina,Malá Bukovina,u křížku",,,,358,,0,,Europe/Prague,0,
2:60:JDFS-6,,"Velká Bukovina,Malá Bukovina,ObÚ",,,,358,,0,,Europe/Prague,0,
2:60:JDFS-5,,"Velká Bukovina,Karlovka,samota",,50.743139,14.386602,358,,0,,Europe/Prague,0,
2:60:JDFS-4,,"Velká Bukovina,Karlovka",,50.741322,14.395235,358,,0,,Europe/Prague,0,
2:60:JDFS-3,,"Dolní Habartice,rozc.",,50.75358,14.34014,359,,0,,Europe/Prague,0,
2:60:JDFS-22,,"Benešov n.Pl.,Pod parkem",,,,331,,0,,Europe/Prague,0,
2:60:JDFS-21,,"Benešov n.Pl.,žel.st.",,,,331,,0,,Europe/Prague,0,
2:60:JDFS-20,,"Starý Šachov,otočka",,,,333,,0,,Europe/Prague,0,
2:60:JDFS-2,,"Dolní Habartice,ObÚ",,,,359,,0,,Europe/Prague,0,
2:60:JDFS-19,,"Žandov,nám.",,,,334,,0,,Europe/Prague,0,
2:60:JDFS-18,,"Verneřice,rozc.",,,,337,,0,,Europe/Prague,0,
2:60:JDFS-16,,"Velká Bukovina,rozc.",,50.72994,14.39688,358,,0,,Europe/Prague,0,
2:60:JDFS-15,,"Velká Bukovina,cihelna",,50.725554,14.39954,334,,0,,Europe/Prague,0,
2:60:JDFS-14,,"Starý Šachov,žel.st.",,,,333,,0,,Europe/Prague,0,
2:60:JDFS-13,,"Starý Šachov,rozc.",,,,333,,0,,Europe/Prague,0,
2:60:JDFS-12,,"Merboltice,konečná",,,,335,,0,,Europe/Prague,0,
2:60:JDFS-11,,"Merboltice,I",,50.6989,14.361953,335,,0,,Europe/Prague,0,
2:60:JDFS-10,,"Merboltice,Hraničář",,,,335,,0,,Europe/Prague,0,
2:60:JDFS-1,,"Benešov n.Pl.,nám.",,,,331,,0,,Europe/Prague,0,
2:61:JDFS-8,,"Žitenice,Skalická",,,,625,,0,,Europe/Prague,0,
2:62:JDFS-8,,"Košťany,Kamenný pahorek",,,,447,,0,,Europe/Prague,0,
2:62:JDFS-7,,"Jeníkov,nám.",,,,492,,0,,Europe/Prague,0,
2:62:JDFS-6,,"Chlumec,žel.přejezd",,,,121,,0,,Europe/Prague,0,
2:62:JDFS-41,,"Ústí n.L.,Všebořice,U Českého Újezdu",,,,101,,0,,Europe/Prague,0,
2:62:JDFS-40,,"Ústí n.L.,Severní Terasa",,,,101,,0,,Europe/Prague,0,
2:62:JDFS-39,,"Ústí n.L.,Masarykova nem.",,,,101,,0,,Europe/Prague,0,
2:62:JDFS-38,,"Ústí n.L.,Bukov,sanat.",,,,101,,0,,Europe/Prague,0,
2:62:JDFS-28,,"Jeníkov,Oldřichov,rozc.žel.st.",,,,492,,0,,Europe/Prague,0,
2:62:JDFS-27,,"Jeníkov,Oldřichov,ObÚ",,,,492,,0,,Europe/Prague,0,
2:62:JDFS-26,,"Jeníkov,Oldřichov,Barbora",,,,492,,0,,Europe/Prague,0,
2:62:JDFS-25,,"Jeníkov,Oldřichov",,,,492,,0,,Europe/Prague,0,
2:62:JDFS-24,,"Ústí n.L.,Všebořice,obchodní centrum",,,,101,,0,,Europe/Prague,0,
2:62:JDFS-22,,"Ústí n.L.,Bukov rondel",,,,101,,0,,Europe/Prague,0,
2:62:JDFS-21,,"Ústí n.L.,Lipová",,,,101,,0,,Europe/Prague,0,
2:62:JDFS-20,,"Ústí n.L.,Podhoří",,,,101,,0,,Europe/Prague,0,
2:62:JDFS-18,,"Újezdeček,nám.",,,,401,,0,,Europe/Prague,0,
2:62:JDFS-17,,"Újezdeček,Dukla rozc.",,,,401,,0,,Europe/Prague,0,
2:62:JDFS-16,,"Teplice,Řetenice,Sklářská",,,,401,,0,,Europe/Prague,0,
2:63:JDFS-9,,"Litoměřice,Vojtěšské nám.",,,,601,,0,,Europe/Prague,0,
2:63:JDFS-7,,"Litoměřice,Pod Radobýlem",,,,601,,0,,Europe/Prague,0,
2:63:JDFS-6,,"Litoměřice,Michalovická",,,,601,,0,,Europe/Prague,0,
2:63:JDFS-5,,"Litoměřice,jatky",,,,601,,0,,Europe/Prague,0,
2:63:JDFS-4,,"Litoměřice,chladírny",,,,601,,0,,Europe/Prague,0,
2:63:JDFS-24,,"Žalhostice,Na Vinárně",,,,617,,0,,Europe/Prague,0,
2:63:JDFS-22,,Žalhostice,,,,617,,0,,Europe/Prague,0,
2:63:JDFS-21,,"Žitenice,Skalice,ústav",,,,625,,0,,Europe/Prague,0,
2:63:JDFS-20,,"Žitenice,Skalice,Močidla",,,,625,,0,,Europe/Prague,0,
2:63:JDFS-19,,"Žitenice,Skalice",,,,625,,0,,Europe/Prague,0,
2:63:JDFS-16,,"Žalhostice,žel.zast.",,,,617,,0,,Europe/Prague,0,
2:63:JDFS-15,,"Žalhostice,škola",,,,617,,0,,Europe/Prague,0,
2:63:JDFS-14,,"Velké Žernoseky,u hřiště",,,,611,,0,,Europe/Prague,0,
2:63:JDFS-13,,"Velké Žernoseky,bytovky",,,,611,,0,,Europe/Prague,0,
2:63:JDFS-12,,Velké Žernoseky,,,,611,,0,,Europe/Prague,0,
2:63:JDFS-11,,Michalovice,,50.53742,14.080902,615,,0,,Europe/Prague,0,
2:63:JDFS-10,,Malíč,,,,612,,0,,Europe/Prague,0,
2:63:JDFS-1,,"Litoměřice,6.ZŠ",,,,601,,0,,Europe/Prague,0,
2:64:JDFS-9,,"Vroutek,Vrbička",,,,942,,0,,Europe/Prague,0,
2:64:JDFS-8,,"Vroutek,Vesce,rozc.",,50.15901,13.329721,942,,0,,Europe/Prague,0,
2:64:JDFS-7,,Valeč,,,,946,,0,,Europe/Prague,0,
2:64:JDFS-6,,"Vroutek,Skytaly",,50.168236,13.301178,942,,0,,Europe/Prague,0,
2:64:JDFS-3,,"Vroutek,Mlýnce",,,,942,,0,,Europe/Prague,0,
2:64:JDFS-2,,"Nepomyšl,Dvérce,záv.",,,,943,,0,,Europe/Prague,0,
2:64:JDFS-11,,"Vroutek,líheň",,,,941,,0,,Europe/Prague,0,
2:64:JDFS-1,,"Vroutek,Skytaly,rozc.1.0 Dětaň",,,,941,,0,,Europe/Prague,0,
2:65:JDFS-7,,"Brandov,ObÚ",,,,254,,0,,Europe/Prague,0,
2:65:JDFS-6,,"Hora Sv.Kateřiny,Na Pile",,,,253,,0,,Europe/Prague,0,
2:65:JDFS-5,,"Brandov,odb.Kolonie",,50.638668,13.38362,254,,0,,Europe/Prague,0,
2:65:JDFS-40,,"Olbernhau,Grünthal,Löser",,,,281,,0,,Europe/Prague,0,
2:65:JDFS-4,,Brandov,,50.62722,13.393843,254,,0,,Europe/Prague,0,
2:65:JDFS-39,,"Olbernhau,Bahnhof",,50.6569252,13.3362255,281,,0,,Europe/Prague,0,
2:65:JDFS-38,,"Olbernhau,Busbahnhof",,50.65743,13.3382063,281,,0,,Europe/Prague,0,
2:65:JDFS-37,,"Olbernhau,Krankenhaus",,50.65538,13.3477125,281,,0,,Europe/Prague,0,
2:65:JDFS-36,,"Olbernhau,ZOLL",,,,x,,0,,Europe/Prague,0,
2:65:JDFS-35,,"Brandov,Na Čáře",,,,254,,0,,Europe/Prague,0,
2:65:JDFS-34,,"Nová Ves v Horách,Mikulovice,rozc.",,,,252,,0,,Europe/Prague,0,
2:65:JDFS-33,,"Olbernhau,Grünthal,Bahnhof",,50.65046,13.3656921,281,,0,,Europe/Prague,0,
2:65:JDFS-32,,"Nová Ves v Horách,křiž.",,,,252,,0,,Europe/Prague,0,
2:65:JDFS-30,,"Nová Ves v Horách,u rybníčku",,,,"252,252",,0,,Europe/Prague,0,
2:65:JDFS-3,,"Brandov,CLO",,,,x,,0,,Europe/Prague,0,
2:65:JDFS-29,,"Nová Ves v Horách,u hřbitova",,,,"252,252",,0,,Europe/Prague,0,
2:65:JDFS-28,,"Nová Ves v Horách,Mikulovice,u domku",,,,252,,0,,Europe/Prague,0,
2:65:JDFS-27,,"Nová Ves v Horách,ObÚ",,,,"252,252",,0,,Europe/Prague,0,
2:65:JDFS-26,,"Nová Ves v Horách,hranice",,,,252,,0,,Europe/Prague,0,
2:65:JDFS-25,,Nová Ves v Horách,,,,252,,0,,Europe/Prague,0,
2:65:JDFS-24,,"Nová Ves v Horách,Mikulovice",,,,252,,0,,Europe/Prague,0,
2:65:JDFS-2,,"Brandov,u hřiště",,,,254,,0,,Europe/Prague,0,
2:65:JDFS-18,,"Horní Jiřetín,Triola",,,,221,,0,,Europe/Prague,0,
2:65:JDFS-17,,"Horní Jiřetín,rozc.0.2",,,,221,,0,,Europe/Prague,0,
2:65:JDFS-16,,"Hora Sv.Kateřiny,Dolní",,,,253,,0,,Europe/Prague,0,
2:65:JDFS-13,,"Hora Sv.Kateřiny,SÚS",,,,253,,0,,Europe/Prague,0,
2:65:JDFS-11,,"Hora Sv.Kateřiny,u hraničního přechodu",,,,253,,0,,Europe/Prague,0,
2:65:JDFS-1,,"Brandov,u kostela",,50.631855,13.391072,254,,0,,Europe/Prague,0,
2:66:JDFS-9,,"Heřmanov,u Ciasků",,,,338,,0,,Europe/Prague,0,
2:66:JDFS-8,,"Heřmanov,rozc.Blankartice",,,,"338,338",,0,,Europe/Prague,0,
2:66:JDFS-7,,"Heřmanov,obuv",,,,338,,0,,Europe/Prague,0,
2:66:JDFS-6,,"Heřmanov,Fojtovice,konečná",,,,338,,0,,Europe/Prague,0,
2:66:JDFS-5,,"Heřmanov,Fojtovice,host.",,,,338,,0,,Europe/Prague,0,
2:66:JDFS-4,,"Heřmanov,Fojtovice,dol.",,,,338,,0,,Europe/Prague,0,
2:66:JDFS-3,,"Heřmanov,Blankartice",,,,338,,0,,Europe/Prague,0,
2:66:JDFS-2,,"Benešov n.Pl.,rozc.Heřmanov",,,,331,,0,,Europe/Prague,0,
2:66:JDFS-15,,"Heřmanov,odb.Mlatce",,,,338,,0,,Europe/Prague,0,
2:66:JDFS-12,,"Heřmanov,Blankartice,dol.",,,,"338,338",,0,,Europe/Prague,0,
2:66:JDFS-11,,"Heřmanov,u školy",,,,338,,0,,Europe/Prague,0,
2:66:JDFS-10,,"Heřmanov,u Záhorků",,,,338,,0,,Europe/Prague,0,
2:67:JDFS-1,,"Děčany,Semeč",,,,753,,0,,Europe/Prague,0,
2:68:JDFS-9,,"Modlany,nám.",,,,433,,0,,Europe/Prague,0,
2:68:JDFS-8,,Modlany,,50.651976,13.895915,433,,0,,Europe/Prague,0,
2:68:JDFS-7,,"Chuderov,Chuderovec",,50.699745,14.041247,101,,0,,Europe/Prague,0,
2:68:JDFS-6,,"Chuderov,Vlachovka",,50.692394,14.045144,"101,101",,0,,Europe/Prague,0,
2:68:JDFS-30,,"Chabařovice,Roudníky",,,,123,,0,,Europe/Prague,0,
2:68:JDFS-3,,"Chabařovice,Hrbovice",,,,123,,0,,Europe/Prague,0,
2:68:JDFS-29,,"Chabařovice,Roudníky,Marie Antonie",,,,123,,0,,Europe/Prague,0,
2:68:JDFS-28,,"Chabařovice,Roudníky,dílny",,,,123,,0,,Europe/Prague,0,
2:68:JDFS-27,,"Srbice,Staré Srbice",,,,401,,0,,Europe/Prague,0,
2:68:JDFS-25,,"Chabařovice,kostel",,,,123,,0,,Europe/Prague,0,
2:68:JDFS-24,,"Chabařovice,radnice",,,,123,,0,,Europe/Prague,0,
2:68:JDFS-23,,"Chabařovice,Chabařovická",,,,123,,0,,Europe/Prague,0,
2:68:JDFS-22,,"Chabařovice,Ravel",,,,123,,0,,Europe/Prague,0,
2:68:JDFS-21,,"Ústí n.L.,U Vozovny",,,,101,,0,,Europe/Prague,0,
2:68:JDFS-2,,"Chabařovice,záv.",,,,123,,0,,Europe/Prague,0,
2:68:JDFS-18,,"Chuderov,Žežice",,,,101,,0,,Europe/Prague,0,
2:68:JDFS-13,,"Ústí n.L.,Staré Předlice",,,,101,,0,,Europe/Prague,0,
2:68:JDFS-1,,"Chabařovice,Petri",,,,123,,0,,Europe/Prague,0,
2:69:JDFS-8,,"Moldava,myslivna",,50.69711,13.691861,445,,0,,Europe/Prague,0,
2:69:JDFS-7,,"Mikulov,mlýn",,,,444,,0,,Europe/Prague,0,
2:69:JDFS-6,,"Mikulov,chata Vitiška",,,,444,,0,,Europe/Prague,0,
2:69:JDFS-5,,Mikulov,,50.688278,13.721921,444,,0,,Europe/Prague,0,
2:69:JDFS-4,,"Košťany,vjezd",,,,447,,0,,Europe/Prague,0,
2:69:JDFS-32,,"Moldava,u hřiště",,,,446,,0,,Europe/Prague,0,
2:69:JDFS-31,,"Košťany,Střelná,Zátiší",,,,447,,0,,Europe/Prague,1,
2:69:JDFS-3,,"Košťany,nám.",,,,447,,0,,Europe/Prague,0,
2:69:JDFS-29,,"Moldava,Dol.Moldava",,50.7200432,13.6474142,446,,0,,Europe/Prague,0,
2:69:JDFS-28,,"Moldava,rozc.st.hranice",,50.716728,13.685992,446,,0,,Europe/Prague,0,
2:69:JDFS-18,,"Moldava,rozc.Fláje",,,,446,,0,,Europe/Prague,0,
2:69:JDFS-17,,"Moldava,Nové Město",,,,445,,0,,Europe/Prague,0,
2:69:JDFS-16,,"Moldava,Nové Město,rozc.",,,,445,,0,,Europe/Prague,0,
2:69:JDFS-15,,"Košťany,Střelná",,,,447,,0,,Europe/Prague,0,
2:69:JDFS-14,,"Hrob,Mlýny,myslivna",,,,441,,0,,Europe/Prague,0,
2:69:JDFS-13,,"Hrob,Mlýny,záv.",,,,441,,0,,Europe/Prague,0,
2:69:JDFS-12,,"Hrob,Mlýny",,,,"441,441",,0,,Europe/Prague,0,
2:69:JDFS-1,,Hrob,,50.657042,13.726007,441,,0,,Europe/Prague,0,
2:70:JDFS-1,,"Libouchec,Čermná",,,,131,,0,,Europe/Prague,0,
2:71:JDFS-5,,"Hřensko,střed",,,,321,,0,,Europe/Prague,0,
2:71:JDFS-23,,"Hřensko,přívoz",,,,321,,0,,Europe/Prague,0,
2:71:JDFS-21,,"Schmilka,Grenzübergang",,,,183,,0,,Europe/Prague,0,
2:72:JDFS-9,,"Rumburk,Desta",,50.961185,14.559484,381,,0,,Europe/Prague,0,
2:72:JDFS-8,,"Rumburk,Bytex 01",,50.951129,14.555117,381,,0,,Europe/Prague,0,
2:72:JDFS-6,,"Lipová,U pomníku",,,,395,,0,,Europe/Prague,0,
2:72:JDFS-5,,Lipová,,,,395,,0,,Europe/Prague,0,
2:72:JDFS-4,,"Jiříkov,předměstí",,,,382,,0,,Europe/Prague,0,
2:72:JDFS-39,,"Šluknov,Království,samota",,,,391,,0,,Europe/Prague,0,
2:72:JDFS-38,,"Šluknov,Království,přádelna",,,,391,,0,,Europe/Prague,0,
2:72:JDFS-37,,"Šluknov,Království,křížek",,,,391,,0,,Europe/Prague,0,
2:72:JDFS-36,,"Šluknov,Království,kostel",,,,391,,0,,Europe/Prague,0,
2:72:JDFS-35,,"Šluknov,Království,Jednota",,,,391,,0,,Europe/Prague,0,
2:72:JDFS-34,,"Šluknov,Císařský,lom",,,,391,,0,,Europe/Prague,0,
2:72:JDFS-32,,"Lobendava,Severní,Zátiší",,,,396,,0,,Europe/Prague,0,
2:72:JDFS-31,,"Lobendava,Severní",,51.0361366,14.3132887,396,,0,,Europe/Prague,0,
2:72:JDFS-3,,"Jiříkov,nám.",,,,382,,0,,Europe/Prague,0,
2:72:JDFS-29,,"Velký Šenov,žel.zast.",,,,392,,0,,Europe/Prague,0,
2:72:JDFS-27,,"Velký Šenov,Benzina",,,,392,,0,,Europe/Prague,0,
2:72:JDFS-26,,"Varnsdorf,Studánka",,,,372,,0,,Europe/Prague,0,
2:72:JDFS-25,,"Varnsdorf,žel.st.",,,,371,,0,,Europe/Prague,0,
2:72:JDFS-24,,"Varnsdorf,TOS",,50.8904762,14.6247349,371,,0,,Europe/Prague,0,
2:72:JDFS-23,,"Varnsdorf,Kaufland",,50.912532,14.612267,371,,0,,Europe/Prague,0,
2:72:JDFS-21,,"Varnsdorf,Čs.mládeže",,,,371,,0,,Europe/Prague,0,
2:72:JDFS-2,,"Jiříkov,koup.",,,,382,,0,,Europe/Prague,0,
2:72:JDFS-18,,"Varnsdorf,hotel Sport",,50.906386,14.637761,371,,0,,Europe/Prague,0,
2:72:JDFS-14,,"Šluknov,Benar",,,,391,,0,,Europe/Prague,0,
2:72:JDFS-13,,"Rumburk,žel.st.",,,,381,,0,,Europe/Prague,0,
2:72:JDFS-12,,"Rumburk,zámeček",,,,381,,0,,Europe/Prague,0,
2:72:JDFS-11,,"Rumburk,odstavné park.",,50.932051,14.558755,381,,0,,Europe/Prague,0,
2:72:JDFS-10,,"Rumburk,Krásnolipská",,,,381,,0,,Europe/Prague,0,
2:72:JDFS-1,,"Jiříkov,kopec",,,,382,,0,,Europe/Prague,0,
2:73:JDFS-8,,"Hřensko,Mezní Louka",,,,322,,0,,Europe/Prague,0,
2:73:JDFS-7,,"Hřensko,Mezná",,,,322,,0,,Europe/Prague,0,
2:73:JDFS-3,,"Hřensko,úpravna vody",,,,321,,0,,Europe/Prague,0,
2:73:JDFS-2,,"Hřensko,Pravčická brána",,,,321,,0,,Europe/Prague,0,
2:73:JDFS-1,,"Hřensko,k soutěskám",,,,321,,0,,Europe/Prague,0,
2:74:JDFS-8,,"Klášterec n.Ohří,nám.",,,,541,,0,,Europe/Prague,0,
2:88:JDFS-10,,"Louny,28.října",,,,801,,0,,Europe/Prague,0,
2:74:JDFS-7,,"Kadaň,nemocnice poliklinika",,50.390883,13.27112,531,,0,,Europe/Prague,0,
2:74:JDFS-6,,"Kadaň,Kpt.Jaroše u kina",,,,531,,0,,Europe/Prague,0,
2:74:JDFS-4,,"Kadaň,Chomutovská sídl.B",,,,531,,0,,Europe/Prague,0,
2:74:JDFS-33,,"Klášterec n.Ohří,Vernéřov,IP Verne III",,,,541,,0,,Europe/Prague,0,
2:74:JDFS-28,,"Kadaň,Královský Vrch",,,,531,,0,,Europe/Prague,0,
2:74:JDFS-27,,"Klášterec n.Ohří,Vernéřov,IP Verne II",,,,541,,0,,Europe/Prague,0,
2:74:JDFS-26,,"Klášterec n.Ohří,Vernéřov,IP Verne I",,,,541,,0,,Europe/Prague,0,
2:74:JDFS-24,,"Klášterec n.Ohří,Vernéřov",,,,541,,0,,Europe/Prague,0,
2:74:JDFS-22,,"Prunéřov,Ušák",,,,532,,0,,Europe/Prague,0,
2:74:JDFS-21,,"Prunéřov,STS",,,,532,,0,,Europe/Prague,0,
2:74:JDFS-20,,"Prunéřov,SSaŽ",,,,532,,0,,Europe/Prague,0,
2:74:JDFS-19,,"Prunéřov,KKZ",,,,532,,0,,Europe/Prague,0,
2:74:JDFS-18,,"Prunéřov,EPRU II",,,,532,,0,,Europe/Prague,0,
2:74:JDFS-17,,"Prunéřov,EPRU I",,,,532,,0,,Europe/Prague,0,
2:74:JDFS-16,,"Prunéřov,důl Nástup",,,,532,,0,,Europe/Prague,0,
2:74:JDFS-15,,"Prunéřov,ČSAD",,,,532,,0,,Europe/Prague,0,
2:74:JDFS-14,,Prunéřov,,,,532,,0,,Europe/Prague,0,
2:74:JDFS-10,,"Klášterec n.Ohří,Kulturní centrum",,,,541,,0,,Europe/Prague,0,
2:75:JDFS-2,,"Libochovany,točna",,,,614,,0,,Europe/Prague,0,
2:75:JDFS-19,,"Žalhostice,Nové Píšťany",,,,"617,617",,0,,Europe/Prague,0,
2:75:JDFS-13,,"Libochovany,Řepnice",,,,614,,0,,Europe/Prague,0,
2:75:JDFS-12,,Píšťany,,,,616,,0,,Europe/Prague,0,
2:75:JDFS-1,,"Kamýk,rozc.",,,,613,,0,,Europe/Prague,0,
2:76:JDFS-9,,"Hrobčice,Mukov",,,,"477,477",,0,,Europe/Prague,0,
2:76:JDFS-8,,Lukov,,50.52819,13.8851633,474,,0,,Europe/Prague,0,
2:76:JDFS-7,,"Hrobčice,školka",,,,473,,0,,Europe/Prague,0,
2:76:JDFS-5,,"Hrobčice,Červený Újezd",,,,477,,0,,Europe/Prague,0,
2:76:JDFS-2,,"Bílina,nám.",,,,461,,0,,Europe/Prague,0,
2:76:JDFS-15,,"Hrobčice,Červený Újezd,Ke Mlýnu",,,,"477,477",,0,,Europe/Prague,0,
2:76:JDFS-13,,"Bílina,PP II škola",,,,461,,0,,Europe/Prague,0,
2:76:JDFS-12,,"Hrobčice,Červený Újezd,rozc.",,,,477,,0,,Europe/Prague,0,
2:76:JDFS-11,,"Lukov,Štěpánov",,,,474,,0,,Europe/Prague,0,
2:76:JDFS-10,,"Hrobčice,Razice",,,,473,,0,,Europe/Prague,0,
2:77:JDFS-9,,"Hřivice,Markvarec",,,,821,,0,,Europe/Prague,0,
2:77:JDFS-8,,"Lipno,Lipenec,škola",,,,846,,0,,Europe/Prague,0,
2:77:JDFS-6,,"Pnětluky,Konětopy",,,,821,,0,,Europe/Prague,0,
2:77:JDFS-5,,Jimlín,,,,841,,0,,Europe/Prague,0,
2:77:JDFS-4,,"Hřivice,žel.st.",,,,821,,0,,Europe/Prague,0,
2:77:JDFS-3,,"Hřivice,Nová ulice",,,,821,,0,,Europe/Prague,0,
2:77:JDFS-2,,Hřivice,,,,821,,0,,Europe/Prague,0,
2:77:JDFS-15,,"Tuchořice,háj.",,,,845,,0,,Europe/Prague,0,
2:77:JDFS-13,,"Tuchořice,Třeskonice",,,,839,,0,,Europe/Prague,0,
2:77:JDFS-12,,"Hřivice,Touchovice",,,,821,,0,,Europe/Prague,0,
2:77:JDFS-11,,"Opočno,žel.přejezd",,,,822,,0,,Europe/Prague,0,
2:77:JDFS-10,,"Opočno,host.",,,,822,,0,,Europe/Prague,0,
2:78:JDFS-7,,"Dubí,Mstišov,Školní",,,,421,,0,,Europe/Prague,0,
2:78:JDFS-6,,"Dubí,Mstišov,nám.",,,,421,,0,,Europe/Prague,0,
2:78:JDFS-5,,"Dubí,Mstišov",,,,421,,0,,Europe/Prague,0,
2:78:JDFS-25,,"Dubí,Mstišov,Dvojhradí",,,,421,,0,,Europe/Prague,0,
2:78:JDFS-24,,"Teplice,Raisova",,50.644651,13.8473,401,,0,,Europe/Prague,0,
2:78:JDFS-23,,"Teplice,Plavecká hala",,50.644622,13.841285,401,,0,,Europe/Prague,0,
2:78:JDFS-22,,"Teplice,Panorama",,50.641885,13.853097,401,,0,,Europe/Prague,0,
2:78:JDFS-21,,"Teplice,Masarykova",,50.64598,13.8328009,401,,0,,Europe/Prague,1,
2:78:JDFS-19,,"Teplice,Jankovcova",,50.647114,13.835964,401,,0,,Europe/Prague,0,
2:78:JDFS-17,,"Teplice,Fráni Šrámka",,,,401,,0,,Europe/Prague,0,
2:78:JDFS-16,,"Teplice,Dubská",,50.64554,13.818242,401,,0,,Europe/Prague,0,
2:78:JDFS-14,,"Modlany,Věšťany",,,,433,,0,,Europe/Prague,0,
2:78:JDFS-13,,"Modlany,Suché",,50.633277,13.911082,433,,0,,Europe/Prague,0,
2:78:JDFS-12,,"Modlany,Kvítkov,Za Kvítkovem",,,,433,,0,,Europe/Prague,0,
2:78:JDFS-11,,"Modlany,Kvítkov",,,,433,,0,,Europe/Prague,0,
2:78:JDFS-10,,"Modlany,Drahkov",,50.640493,13.869508,433,,0,,Europe/Prague,0,
2:79:JDFS-7,,"Krupka,Vrchoslav,točna",,,,431,,0,,Europe/Prague,0,
2:79:JDFS-4,,"Teplice,Trnovany,Bohosudovská",,50.657387,13.847344,401,,0,,Europe/Prague,0,
2:79:JDFS-3,,"Teplice,Trnovany,Pluto",,50.653786,13.844946,401,,0,,Europe/Prague,0,
2:79:JDFS-15,,"Krupka,sídliště",,,,431,,0,,Europe/Prague,0,
2:79:JDFS-12,,"Teplice,Sobědruhy,Rudné doly",,,,401,,0,,Europe/Prague,0,
2:79:JDFS-11,,"Teplice,Sobědruhy,nám.",,,,401,,0,,Europe/Prague,0,
2:79:JDFS-10,,"Teplice,Sobědruhy",,,,401,,0,,Europe/Prague,0,
2:79:JDFS-1,,"Krupka,stadion",,50.677021,13.868922,431,,0,,Europe/Prague,0,
2:80:JDFS-4,,"Hrob,Beseda",,50.654411,13.721334,441,,0,,Europe/Prague,0,
2:80:JDFS-27,,"Krupka,Bohosudov,MěÚ",,50.682167,13.872214,431,,0,,Europe/Prague,0,
2:80:JDFS-25,,"Košťany,Střelná,sídliště",,,,447,,0,,Europe/Prague,0,
2:80:JDFS-22,,"Hrob,Křižanov",,,,441,,0,,Europe/Prague,0,
2:80:JDFS-2,,"Háj u Duchcova,statek",,,,442,,0,,Europe/Prague,0,
2:80:JDFS-16,,"Záluží,Petrochemie",,,,211,,0,,Europe/Prague,0,
2:81:JDFS-4,,"Kadaň,KOH-I-NOOR",,50.379048,13.282948,531,,0,,Europe/Prague,0,
2:81:JDFS-16,,"Perštejn,pošta",,,,543,,0,,Europe/Prague,0,
2:81:JDFS-15,,"Perštejn,kino",,,,543,,0,,Europe/Prague,0,
2:81:JDFS-14,,"Okounov,ObÚ",,,,544,,0,,Europe/Prague,0,
2:81:JDFS-13,,Okounov,,50.3635961,13.10655575,544,,0,,Europe/Prague,0,
2:81:JDFS-12,,Lužný,,,,543,,0,,Europe/Prague,0,
2:81:JDFS-11,,"Klášterec n.Ohří,Šumná,rozc.Šumburk",,,,541,,0,,Europe/Prague,0,
2:81:JDFS-10,,"Klášterec n.Ohří,Klášterecká Jeseň",,,,541,,0,,Europe/Prague,0,
2:81:JDFS-1,,"Černýš,rozc.1.0",,,,543,,0,,Europe/Prague,0,
2:82:JDFS-17,,"Chabařovice,strojírny",,,,121,,0,,Europe/Prague,0,
2:82:JDFS-16,,"Chabařovice,koupaliště",,,,123,,0,,Europe/Prague,0,
2:83:JDFS-9,,"Loučná,Lesní zámeček",,,,556,,0,,Europe/Prague,0,
2:83:JDFS-8,,"Loučná,háj.park.",,,,556,,0,,Europe/Prague,0,
2:83:JDFS-26,,"Boží Dar,CLO",,,,x,,0,,Europe/Prague,0,
2:83:JDFS-25,,"Kurort Oberwiesenthal,Markt",,50.41919,12.9706459,271,,0,,Europe/Prague,0,
2:83:JDFS-24,,"Kurort Oberwiesenthal,Penzion Herberger",,50.4191,12.9673223,271,,0,,Europe/Prague,0,
2:83:JDFS-23,,"Kurort Oberwiesenthal,ZOLL",,,,x,,0,,Europe/Prague,0,
2:83:JDFS-19,,"Kurort Oberwiesenthal,Hotel am Fichtelberg",,,,271,,0,,Europe/Prague,0,
2:83:JDFS-17,,"Kurort Oberwiesenthal,Neues Haus",,50.4129639,12.9390144,271,,0,,Europe/Prague,0,
2:83:JDFS-16,,"Kurort Oberwiesenthal,Am Bahnhof",,50.42115,12.9725132,271,,0,,Europe/Prague,0,
2:83:JDFS-15,,"Boží Dar,u kostela",,50.409073,12.924717,557,,0,,Europe/Prague,0,
2:83:JDFS-11,,"Loučná,Háj,záv.",,,,556,,0,,Europe/Prague,0,
2:83:JDFS-10,,"Loučná,rozc.1.0",,,,556,,0,,Europe/Prague,0,
2:83:JDFS-1,,"Boží Dar,Klínovec,rozc.",,,,557,,0,,Europe/Prague,0,
2:84:JDFS-9,,"Světec,Zámecká zahrada",,,,486,,0,,Europe/Prague,0,
2:84:JDFS-8,,"Světec,Kostomlatská",,,,486,,0,,Europe/Prague,0,
2:84:JDFS-7,,"Kostomlaty p.Milešovkou,škola",,,,456,,0,,Europe/Prague,0,
2:84:JDFS-6,,"Kostomlaty p.Milešovkou,ObÚ",,,,456,,0,,Europe/Prague,0,
2:84:JDFS-5,,"Kostomlaty p.Milešovkou,nám.",,,,456,,0,,Europe/Prague,0,
2:84:JDFS-4,,"Kostomlaty p.Milešovkou,garáže",,,,456,,0,,Europe/Prague,0,
2:84:JDFS-31,,"Zabrušany,Želénky,křiž.",,,,493,,0,,Europe/Prague,0,
2:84:JDFS-30,,"Zabrušany,Želénky,Fučík",,,,493,,0,,Europe/Prague,0,
2:84:JDFS-26,,"Teplice,Hudcov",,50.6276741,13.7823009,401,,0,,Europe/Prague,0,
2:84:JDFS-23,,"Rtyně n.Bílinou,Velvěty,záv.",,,,451,,0,,Europe/Prague,0,
2:84:JDFS-22,,"Bžany,Mošnov",,,,455,,0,,Europe/Prague,0,
2:84:JDFS-21,,"Bžany,Lysec",,,,455,,0,,Europe/Prague,0,
2:84:JDFS-20,,"Bžany,Lhenice",,,,455,,0,,Europe/Prague,0,
2:84:JDFS-19,,"Bžany,Lbín",,,,455,,0,,Europe/Prague,0,
2:84:JDFS-18,,"Bžany,Hradiště,rozc.",,,,455,,0,,Europe/Prague,0,
2:84:JDFS-17,,"Bžany,Hradiště",,,,455,,0,,Europe/Prague,0,
2:84:JDFS-16,,"Bystřany,Úpořiny",,,,458,,0,,Europe/Prague,0,
2:84:JDFS-11,,"Světec,Štrbice",,,,486,,0,,Europe/Prague,0,
2:84:JDFS-10,,"Světec,záv.",,,,486,,0,,Europe/Prague,0,
2:84:JDFS-1,,Bžany,,,,455,,0,,Europe/Prague,0,
2:85:JDFS-9,,Lestkov,,50.36441,13.190382,541,,0,,Europe/Prague,0,
2:85:JDFS-16,,Zásada u Rašovic,,,,531,,0,,Europe/Prague,0,
2:85:JDFS-15,,"Klášterec n.Ohří,Suchý Důl",,,,541,,0,,Europe/Prague,0,
2:85:JDFS-14,,"Klášterec n.Ohří,Rašovice",,,,541,,0,,Europe/Prague,0,
2:85:JDFS-13,,Pokutice,,50.37184,13.249058,531,,0,,Europe/Prague,0,
2:85:JDFS-11,,"Klášterec n.Ohří,Hradiště,rozc.",,,,541,,0,,Europe/Prague,0,
2:85:JDFS-10,,Louchov,,50.425865,13.191126,545,,0,,Europe/Prague,0,
2:85:JDFS-1,,Domašín,,,,545,,0,,Europe/Prague,0,
2:86:JDFS-9,,"Most,Krym",,50.502487,13.662803,201,,0,,Europe/Prague,0,
2:86:JDFS-8,,"Most,Kahan",,50.49167,13.652119,201,,0,,Europe/Prague,0,
2:86:JDFS-7,,"Most,14.ZŠ",,,,201,,0,,Europe/Prague,0,
2:86:JDFS-13,,"Most,Rudolická MUS a.s.",,50.508502,13.658825,201,,0,,Europe/Prague,0,
2:86:JDFS-10,,"Most,Zd.Štěpánka",,,,201,,0,,Europe/Prague,0,
2:87:JDFS-9,,"Staré Křečany,Elite",,,,384,,0,,Europe/Prague,0,
2:87:JDFS-8,,Staré Křečany,,,,384,,0,,Europe/Prague,0,
2:87:JDFS-5,,"Krásná Lípa,Kyjovská",,,,"386,386",,0,,Europe/Prague,0,
2:87:JDFS-4,,"Krásná Lípa,nám.",,,,386,,0,,Europe/Prague,0,
2:87:JDFS-23,,"Rumburk,Dolní Křečany,host.",,,,381,,0,,Europe/Prague,0,
2:87:JDFS-22,,"Rumburk,Dolní Křečany",,,,381,,0,,Europe/Prague,0,
2:87:JDFS-21,,"Krásná Lípa,Zahrady,rozc.",,,,386,,0,,Europe/Prague,0,
2:87:JDFS-20,,"Krásná Lípa,Zahrady",,,,386,,0,,Europe/Prague,0,
2:87:JDFS-2,,"Doubice,ObÚ",,,,387,,0,,Europe/Prague,0,
2:87:JDFS-19,,"Krásná Lípa,Sněžná",,,,386,,0,,Europe/Prague,0,
2:87:JDFS-18,,"Krásná Lípa,Kyjov,Dlouhý Důl",,,,386,,0,,Europe/Prague,0,
2:87:JDFS-17,,"Krásná Lípa,Kyjov,přehrada",,,,386,,0,,Europe/Prague,0,
2:87:JDFS-16,,"Krásná Lípa,Kyjov,Kyjovské údolí",,,,386,,0,,Europe/Prague,0,
2:87:JDFS-15,,"Krásná Lípa,Kyjov",,,,386,,0,,Europe/Prague,0,
2:87:JDFS-14,,"Krásná Lípa,Krásný Buk",,,,"386,386",,0,,Europe/Prague,0,
2:87:JDFS-13,,"Rumburk,Šluknovská",,,,381,,0,,Europe/Prague,0,
2:87:JDFS-12,,"Staré Křečany,u statku",,,,381,,0,,Europe/Prague,0,
2:87:JDFS-11,,"Staré Křečany,ObÚ",,,,384,,0,,Europe/Prague,0,
2:87:JDFS-10,,"Staré Křečany,Jednota",,,,384,,0,,Europe/Prague,0,
2:87:JDFS-1,,Doubice,,50.883641,14.463717,387,,0,,Europe/Prague,0,
2:88:JDFS-9,,"Louny,Petra Obrovce",,50.359375,13.7875528,801,,0,,Europe/Prague,0,
2:88:JDFS-6,,Libčeves,,,,851,,0,,Europe/Prague,0,
2:88:JDFS-5,,Chraberce,,50.408313,13.828423,855,,0,,Europe/Prague,0,
2:88:JDFS-4,,"Chlumčany,žel.st.",,,,881,,0,,Europe/Prague,0,
2:88:JDFS-3,,"Chlumčany,obec",,,,881,,0,,Europe/Prague,0,
2:88:JDFS-19,,"Dobroměřice,Nečišská",,,,856,,0,,Europe/Prague,0,
2:88:JDFS-18,,"Černčice,Raisova",,,,861,,0,,Europe/Prague,0,
2:88:JDFS-16,,"Chlumčany,Vlčí",,,,881,,0,,Europe/Prague,0,
2:88:JDFS-15,,"Louny,Nečichy",,,,859,,0,,Europe/Prague,0,
2:88:JDFS-14,,"Chožov,Mnichovský Týnec",,,,855,,0,,Europe/Prague,0,
2:88:JDFS-1,,Blšany u Loun,,,,882,,0,,Europe/Prague,0,
2:89:JDFS-9,,"Malšovice,Javory",,,,319,,0,,Europe/Prague,0,
2:89:JDFS-8,,"Děčín,Vilsnice,záv.",,,,301,,0,,Europe/Prague,0,
2:89:JDFS-7,,"Děčín,Vilsnice",,,,301,,0,,Europe/Prague,0,
2:89:JDFS-6,,"Děčín,Monos",,,,301,,0,,Europe/Prague,0,
2:89:JDFS-4,,"Děčín,Diana",,,,301,,0,,Europe/Prague,0,
2:89:JDFS-3,,"Děčín,Desta",,,,301,,0,,Europe/Prague,0,
2:89:JDFS-19,,"Malšovice,točna",,,,319,,0,,Europe/Prague,0,
2:89:JDFS-18,,"Děčín,Kovošrot",,,,301,,0,,Europe/Prague,0,
2:89:JDFS-17,,"Děčín,Alusuisse",,,,301,,0,,Europe/Prague,0,
2:89:JDFS-16,,"Malšovice,Stará Bohyně,rozc.",,,,319,,0,,Europe/Prague,0,
2:89:JDFS-15,,"Malšovice,Nová Bohyně,rozc.",,,,319,,0,,Europe/Prague,0,
2:89:JDFS-14,,"Malšovice,Hliněná,rozc.",,,,319,,0,,Europe/Prague,0,
2:89:JDFS-13,,"Malšovice,Hliněná",,,,319,,0,,Europe/Prague,0,
2:89:JDFS-12,,"Malšovice,Četrans",,,,301,,0,,Europe/Prague,0,
2:89:JDFS-11,,"Malšovice,rest.",,,,"319,319",,0,,Europe/Prague,0,
2:89:JDFS-10,,"Malšovice,dol.ves",,,,319,,0,,Europe/Prague,0,
2:89:JDFS-1,,"Malšovice,Borek",,,,319,,0,,Europe/Prague,0,
2:90:JDFS-9,,"Teplice,Pražská",,,,401,,0,,Europe/Prague,0,
2:90:JDFS-40,,"Žim,žel.zast.",,,,454,,0,,Europe/Prague,0,
2:90:JDFS-4,,Rtyně n.Bílinou,,,,"451,451",,0,,Europe/Prague,0,
2:90:JDFS-39,,"Bořislav,obchod",,,,"453,453",,0,,Europe/Prague,0,
2:90:JDFS-38,,"Řehlovice,Brozánky,rozc.",,,,"112,112",,0,,Europe/Prague,0,
2:90:JDFS-37,,"Žalany,Lelov",,,,452,,0,,Europe/Prague,0,
2:90:JDFS-33,,"Rtyně n.Bílinou,Velvěty,Kozlíky host.",,,,451,,0,,Europe/Prague,0,
2:90:JDFS-32,,"Rtyně n.Bílinou,Velvěty,Kozlíky",,,,451,,0,,Europe/Prague,0,
2:90:JDFS-31,,"Rtyně n.Bílinou,Velvěty",,,,"451,451",,0,,Europe/Prague,0,
2:90:JDFS-30,,"Rtyně n.Bílinou,Sezemice",,,,451,,0,,Europe/Prague,0,
2:90:JDFS-29,,"Rtyně n.Bílinou,Malhostice",,,,451,,0,,Europe/Prague,0,
2:90:JDFS-23,,"Novosedlice,Lípa",,,,421,,0,,Europe/Prague,0,
2:90:JDFS-2,,"Bořislav,školka",,,,453,,0,,Europe/Prague,0,
2:90:JDFS-19,,"Bystřany,Nové Dvory",,,,458,,0,,Europe/Prague,0,
2:90:JDFS-18,,"Bystřany,Máchovy sady",,,,458,,0,,Europe/Prague,0,
2:90:JDFS-17,,"Bystřany,hřbitov",,,,401,,0,,Europe/Prague,0,
2:90:JDFS-16,,"Rtyně n.Bílinou,kostel",,,,"451,451",,0,,Europe/Prague,0,
2:90:JDFS-13,,Žim,,,,454,,0,,Europe/Prague,0,
2:90:JDFS-12,,"Žalany,škola",,,,452,,0,,Europe/Prague,0,
2:90:JDFS-10,,"Teplice,Prosetice,plynárny",,,,401,,0,,Europe/Prague,0,
2:91:JDFS-9,,"Děčín,Březiny,škola",,,,301,,0,,Europe/Prague,0,
2:91:JDFS-8,,"Děčín,Březiny,Libverda",,,,301,,0,,Europe/Prague,0,
2:91:JDFS-5,,"Děčín,Nářadí",,,,301,,0,,Europe/Prague,0,
2:91:JDFS-37,,"Huntířov,Nová Oleška,rybník",,,,345,,0,,Europe/Prague,0,
2:91:JDFS-36,,"Jetřichovice,Rynartice",,,,341,,0,,Europe/Prague,0,
2:91:JDFS-35,,"Jetřichovice,Vysoká Lípa,rest.",,,,342,,0,,Europe/Prague,0,
2:91:JDFS-34,,"Jetřichovice,Vysoká Lípa,hotel Lípa",,,,342,,0,,Europe/Prague,0,
2:91:JDFS-33,,"Jetřichovice,Všemily",,,,341,,0,,Europe/Prague,0,
2:91:JDFS-32,,"Jetřichovice,Všemily,rozc.",,,,341,,0,,Europe/Prague,0,
2:91:JDFS-31,,"Jetřichovice,Všemily,konírna",,,,341,,0,,Europe/Prague,0,
2:91:JDFS-30,,"Jetřichovice,Vysoká Lípa,rozc.",,,,342,,0,,Europe/Prague,0,
2:91:JDFS-29,,"Jetřichovice,Rynartice,Pod zámečkem",,,,"341,341",,0,,Europe/Prague,0,
2:91:JDFS-28,,"Děčín,Narex",,,,301,,0,,Europe/Prague,0,
2:91:JDFS-27,,"Huntířov,Stará Oleška,škola",,,,345,,0,,Europe/Prague,0,
2:91:JDFS-26,,"Huntířov,Stará Oleška,koupaliště",,,,345,,0,,Europe/Prague,0,
2:91:JDFS-25,,"Srbská Kamenice,pošta",,,,343,,0,,Europe/Prague,0,
2:91:JDFS-23,,"Srbská Kamenice,Ferd.sout.",,50.831342,14.356599,343,,0,,Europe/Prague,0,
2:91:JDFS-22,,"Huntířov,Nová Oleška,škola",,,,345,,0,,Europe/Prague,0,
2:91:JDFS-20,,"Jetřichovice,Starý mlýn",,,,341,,0,,Europe/Prague,0,
2:91:JDFS-19,,"Jetřichovice,ObÚ",,,,341,,0,,Europe/Prague,0,
2:91:JDFS-18,,"Jetřichovice,koup.",,,,341,,0,,Europe/Prague,0,
2:91:JDFS-17,,"Jetřichovice,host.",,,,"341,341",,0,,Europe/Prague,0,
2:91:JDFS-16,,"Huntířov,kostel",,,,345,,0,,Europe/Prague,0,
2:91:JDFS-15,,"Huntířov,dol.ves",,,,345,,0,,Europe/Prague,0,
2:91:JDFS-13,,"Dobrná,škola",,,,346,,0,,Europe/Prague,0,
2:91:JDFS-12,,"Dobrná,rozc.Brložec",,,,346,,0,,Europe/Prague,0,
2:91:JDFS-11,,"Dobrná,kovárna",,,,346,,0,,Europe/Prague,0,
2:91:JDFS-10,,"Dobrná,hor.ves",,50.775696,14.295432,346,,0,,Europe/Prague,0,
2:91:JDFS-1,,"Dobrná,Brložec",,,,346,,0,,Europe/Prague,0,
2:92:JDFS-8,,"Česká Kamenice,Huníkov,kult.dům",,,,351,,0,,Europe/Prague,0,
2:92:JDFS-7,,"Česká Kamenice,Huníkov",,,,351,,0,,Europe/Prague,0,
2:92:JDFS-6,,"Horní Habartice,ObÚ",,,,356,,0,,Europe/Prague,0,
2:92:JDFS-21,,"Veselé,ObÚ",,,,354,,0,,Europe/Prague,0,
2:92:JDFS-20,,"Veselé,horní",,,,354,,0,,Europe/Prague,0,
2:92:JDFS-2,,"Česká Kamenice,5.května",,,,351,,0,,Europe/Prague,0,
2:92:JDFS-19,,"Kunratice,Studený",,50.845161,14.436701,352,,0,,Europe/Prague,0,
2:92:JDFS-18,,"Česká Kamenice,Pekelský Důl",,,,351,,0,,Europe/Prague,0,
2:92:JDFS-17,,"Markvartice,žel.st.",,,,355,,0,,Europe/Prague,0,
2:92:JDFS-16,,"Markvartice,ObÚ",,50.777216,14.357185,355,,0,,Europe/Prague,0,
2:92:JDFS-15,,Markvartice,,50.777216,14.357185,355,,0,,Europe/Prague,0,
2:92:JDFS-14,,"Kunratice,Lipnice",,50.835335,14.426353,352,,0,,Europe/Prague,0,
2:92:JDFS-13,,Kunratice,,50.818302,14.415572,352,,0,,Europe/Prague,0,
2:92:JDFS-12,,"Kunratice,horní",,50.819744,14.421805,352,,0,,Europe/Prague,0,
2:92:JDFS-11,,"Česká Kamenice,Kerhartice,hl.sil.",,,,351,,0,,Europe/Prague,0,
2:92:JDFS-10,,"Česká Kamenice,Kerhartice",,,,351,,0,,Europe/Prague,0,
2:93:JDFS-6,,"Děčín,Dolní Žleb,hranice",,,,321,,0,,Europe/Prague,0,
2:93:JDFS-5,,"Děčín,28.října",,,,301,,0,,Europe/Prague,0,
2:93:JDFS-43,,"Chřibská,Na Potocích",,,,352,,0,,Europe/Prague,0,
2:93:JDFS-42,,"Jetřichovice,Vysoká Lípa,Divoká soutěska",,,,342,,0,,Europe/Prague,0,
2:93:JDFS-4,,"Děčín,Podskalí",,,,301,,0,,Europe/Prague,0,
2:93:JDFS-36,,"Děčín,Loubí,IV",,,,301,,0,,Europe/Prague,0,
2:93:JDFS-3,,"Děčín,Masarykovo nám.",,,,301,,0,,Europe/Prague,0,
2:93:JDFS-29,,"Chřibská,Dolní Chřibská,rozc.",,,,361,,0,,Europe/Prague,0,
2:93:JDFS-28,,"Chřibská,Dolní Chřibská",,,,361,,0,,Europe/Prague,0,
2:93:JDFS-25,,"Hřensko,Mezní Louka,před hotelem",,,,322,,0,,Europe/Prague,0,
2:93:JDFS-23,,"Děčín,Loubí,překladiště",,,,301,,0,,Europe/Prague,0,
2:93:JDFS-22,,"Děčín,Loubí,II",,,,301,,0,,Europe/Prague,0,
2:93:JDFS-21,,"Děčín,Loubí,I",,,,301,,0,,Europe/Prague,0,
2:93:JDFS-12,,"Hřensko,nábř.",,,,321,,0,,Europe/Prague,0,
2:93:JDFS-11,,"Hřensko,Na výsluní",,,,321,,0,,Europe/Prague,0,
2:94:JDFS-3,,"Lovosice,Centrum kultury Lovoš",,50.51212,14.0536375,701,,0,,Europe/Prague,0,
2:94:JDFS-1,,"Čížkovice,cementárna",,,,711,,0,,Europe/Prague,0,
2:95:JDFS-9,,Nové Dvory,,,,774,,0,,Europe/Prague,0,
2:95:JDFS-7,,"Nové Dvory,Chvalín",,,,774,,0,,Europe/Prague,0,
2:95:JDFS-6,,"Dušníky,cesta",,,,773,,0,,Europe/Prague,0,
2:95:JDFS-25,,"Vědomice,Zavadilka,Na Průhonu",,,,664,,0,,Europe/Prague,0,
2:95:JDFS-22,,"Vědomice,Zavadilka",,,,664,,0,,Europe/Prague,0,
2:95:JDFS-21,,Vědomice,,,,664,,0,,Europe/Prague,0,
2:95:JDFS-2,,Černěves,,,,665,,0,,Europe/Prague,0,
2:95:JDFS-17,,"Vědomice,plavecký bazén",,,,664,,0,,Europe/Prague,0,
2:95:JDFS-16,,"Roudnice n.L.,Tyršův stadion",,,,661,,0,,Europe/Prague,0,
2:95:JDFS-10,,"Roudnice n.L.,Podlusky,Chvalínská",,,,661,,0,,Europe/Prague,0,
2:96:JDFS-35,,"Chomutov,Průmyslová zóna II",,,,501,,0,,Europe/Prague,0,
2:96:JDFS-32,,"Chomutov,Průmyslová zóna I",,,,501,,0,,Europe/Prague,0,
2:96:JDFS-26,,Zaječice,,,,573,,0,,Europe/Prague,0,
2:96:JDFS-24,,Všestudy,,,,576,,0,,Europe/Prague,0,
2:96:JDFS-23,,Vrskmaň,,,,573,,0,,Europe/Prague,0,
2:96:JDFS-21,,Sušany,,,,574,,0,,Europe/Prague,0,
2:96:JDFS-18,,Pesvice,,50.463272,13.48376,575,,0,,Europe/Prague,0,
2:96:JDFS-17,,Okořín,,,,574,,0,,Europe/Prague,0,
2:96:JDFS-10,,"Jirkov,hřbitov",,,,511,,0,,Europe/Prague,0,
2:97:JDFS-7,,"Teplice,Trnovany,Somet",,50.6512642,13.8556538,401,,0,,Europe/Prague,0,
2:97:JDFS-6,,"Teplice,Trnovany,Modlanská",,50.652522,13.847643,401,,0,,Europe/Prague,0,
2:97:JDFS-19,,"Dubí,Ruská",,,,421,,0,,Europe/Prague,0,
2:97:JDFS-18,,"Dubí,Rudolfova huť",,,,421,,0,,Europe/Prague,0,
2:97:JDFS-12,,"Dubí,čerpací stanice",,,,421,,0,,Europe/Prague,0,
2:99:JDFS-7,,"Varnsdorf,poliklinika",,50.911095,14.625555,371,,0,,Europe/Prague,0,
2:99:JDFS-4,,"Krásná Lípa,Varnsdorfská",,,,386,,0,,Europe/Prague,0,
2:99:JDFS-3,,"Krásná Lípa,u samoobsluhy",,,,386,,0,,Europe/Prague,0,
2:99:JDFS-24,,"Staré Křečany,Brtníky,nám.",,,,385,,0,,Europe/Prague,0,
2:99:JDFS-23,,"Staré Křečany,Brtníky,Na růžku",,,,385,,0,,Europe/Prague,0,
2:99:JDFS-21,,"Krásná Lípa,Vlčí Hora,Žebrácká kaple",,,,386,,0,,Europe/Prague,0,
2:99:JDFS-20,,"Krásná Lípa,Vlčí Hora",,,,386,,0,,Europe/Prague,0,
2:99:JDFS-2,,"Krásná Lípa,háj.",,,,386,,0,,Europe/Prague,0,
2:99:JDFS-17,,"Varnsdorf,Studánka,STS",,,,372,,0,,Europe/Prague,0,
2:99:JDFS-16,,"Varnsdorf,Studánka,pošta",,,,372,,0,,Europe/Prague,0,
2:99:JDFS-12,,"Varnsdorf,Elite",,50.910923,14.633582,371,,0,,Europe/Prague,0,
2:100:JDFS-5,,"Chlumčany,motorest",,,,881,,0,,Europe/Prague,0,
2:100:JDFS-4,,"Hříškov,škola",,,,885,,0,,Europe/Prague,0,
2:100:JDFS-3,,Hříškov,,,,885,,0,,Europe/Prague,0,
2:100:JDFS-29,,"Louny,prům.zóna",,,,801,,0,,Europe/Prague,0,
2:100:JDFS-27,,"Louny,u cihelny",,50.345909,13.819062,801,,0,,Europe/Prague,0,
2:100:JDFS-26,,Žerotín,,,,887,,0,,Europe/Prague,0,
2:100:JDFS-25,,"Toužetín,Sulec",,,,884,,0,,Europe/Prague,0,
2:100:JDFS-24,,"Smolnice,rozc.",,50.321432,13.861597,883,,0,,Europe/Prague,0,
2:100:JDFS-23,,Smolnice,,50.308887,13.849406,883,,0,,Europe/Prague,0,
2:100:JDFS-18,,"Panenský Týnec,škola",,,,886,,0,,Europe/Prague,0,
2:100:JDFS-17,,Panenský Týnec,,,,886,,0,,Europe/Prague,0,
2:100:JDFS-16,,Nová Ves,,,,888,,0,,Europe/Prague,0,
2:100:JDFS-12,,"Louny,Pudlovská",,50.351218,13.810127,801,,0,,Europe/Prague,0,
2:100:JDFS-11,,"Louny,poliklinika",,50.34971,13.806389,801,,0,,Europe/Prague,0,
2:100:JDFS-1,,"Hříškov,Bedřichovice",,,,885,,0,,Europe/Prague,0,
2:101:JDFS-8,,"Mšené-lázně,Ječovice",,,,777,,0,,Europe/Prague,0,
2:101:JDFS-4,,"Peruc,Hřivčice",,,,871,,0,,Europe/Prague,0,
2:101:JDFS-30,,"Račiněves,otočka",,,,688,,0,,Europe/Prague,0,
2:101:JDFS-3,,"Toužetín,Donín",,,,884,,0,,Europe/Prague,0,
2:101:JDFS-29,,"Vrbno n.Lesy,žel.st.",,50.3276863,13.9065065,874,,0,,Europe/Prague,0,
2:101:JDFS-28,,Vrbno n.Lesy,,50.32489715,13.90668825,874,,0,,Europe/Prague,0,
2:101:JDFS-27,,"Mšené-lázně,Vrbice,Podolí",,,,776,,0,,Europe/Prague,0,
2:101:JDFS-26,,Toužetín,,,,884,,0,,Europe/Prague,0,
2:101:JDFS-24,,"Mšené-lázně,Ředhošť",,,,777,,0,,Europe/Prague,0,
2:101:JDFS-23,,"Roudnice n.L.,Špindlerova tř.",,,,661,,0,,Europe/Prague,0,
2:101:JDFS-22,,"Roudnice n.L.,letiště",,,,661,,0,,Europe/Prague,0,
2:101:JDFS-2,,"Peruc,Černochov",,,,871,,0,,Europe/Prague,0,
2:101:JDFS-18,,"Račiněves,Motorest rozc.",,,,688,,0,,Europe/Prague,0,
2:101:JDFS-17,,Račiněves,,,,688,,0,,Europe/Prague,0,
2:101:JDFS-13,,Martiněves,,,,779,,0,,Europe/Prague,0,
2:102:JDFS-8,,Petrohrad,,50.131378,13.440622,945,,0,,Europe/Prague,0,
2:102:JDFS-7,,"Blatno,Malměřice",,,,951,,0,,Europe/Prague,0,
2:102:JDFS-6,,Kryry,,50.171777,13.42283,944,,0,,Europe/Prague,0,
2:102:JDFS-5,,"Petrohrad,Černčice,škola",,,,945,,0,,Europe/Prague,0,
2:102:JDFS-4,,"Petrohrad,Černčice",,,,945,,0,,Europe/Prague,0,
2:102:JDFS-3,,"Blatno,žel.st.",,,,951,,0,,Europe/Prague,0,
2:102:JDFS-29,,"Kryry,Železniční",,,,944,,0,,Europe/Prague,0,
2:102:JDFS-26,,"Petrohrad,ObÚ",,50.138817,13.43731,945,,0,,Europe/Prague,0,
2:102:JDFS-25,,"Kryry,sklárna",,,,944,,0,,Europe/Prague,0,
2:102:JDFS-18,,"Vroutek,Kryrská",,50.177658,13.384476,941,,0,,Europe/Prague,0,
2:102:JDFS-15,,"Kryry,Stebno",,50.1164932,13.4174643,952,,0,,Europe/Prague,0,
2:102:JDFS-1,,"Petrohrad,Bílenec",,,,945,,0,,Europe/Prague,0,
2:103:JDFS-9,,Podlesice,,50.280266,13.330981,565,,0,,Europe/Prague,0,
2:103:JDFS-5,,Miřetice u Vintířova,,,,591,,0,,Europe/Prague,0,
2:103:JDFS-18,,Vintířov,,,,591,,0,,Europe/Prague,0,
2:103:JDFS-17,,Vinaře,,,,567,,0,,Europe/Prague,0,
2:103:JDFS-12,,"Radonice,žel.st.",,,,591,,0,,Europe/Prague,0,
2:103:JDFS-1,,Blov,,50.325335,13.29482,567,,0,,Europe/Prague,0,
2:104:JDFS-4,,"Bitozeves,Nehasice",,50.3848419,13.59791,812,,0,,Europe/Prague,0,
2:104:JDFS-26,,"Postoloprty,Seletice",,50.368305,13.667445,811,,0,,Europe/Prague,0,
2:104:JDFS-2,,"Bitozeves,škola",,,,812,,0,,Europe/Prague,0,
2:104:JDFS-16,,"Výškov,záv.",,,,815,,0,,Europe/Prague,0,
2:104:JDFS-14,,"Postoloprty,Vrbka",,50.381252,13.694112,811,,0,,Europe/Prague,0,
2:104:JDFS-13,,"Bitozeves,Vidovle",,50.389391,13.647635,812,,0,,Europe/Prague,0,
2:104:JDFS-12,,"Bitozeves,Tatinná",,50.381233,13.60703,812,,0,,Europe/Prague,0,
2:104:JDFS-10,,"Postoloprty,Seménkovice",,,,811,,0,,Europe/Prague,0,
2:104:JDFS-1,,Bitozeves,,50.372895,13.640421,812,,0,,Europe/Prague,0,
2:105:JDFS-9,,"Podbořany,Letovská",,,,931,,0,,Europe/Prague,0,
2:105:JDFS-7,,"Žatec,Radíčeves,rozc.Milošice",,,,901,,0,,Europe/Prague,0,
2:105:JDFS-6,,"Žatec,Milčeves",,,,901,,0,,Europe/Prague,0,
2:105:JDFS-5,,Měcholupy,,,,921,,0,,Europe/Prague,0,
2:105:JDFS-4,,Libořice,,,,"934,934",,0,,Europe/Prague,0,
2:105:JDFS-3,,"Blšany,Liběšovice",,,,937,,0,,Europe/Prague,0,
2:105:JDFS-22,,"Blšany,Soběchleby,rozc.",,,,935,,0,,Europe/Prague,0,
2:105:JDFS-2,,"Podbořany,Letov",,,,932,,0,,Europe/Prague,0,
2:105:JDFS-18,,"Libořice,Železná",,,,"934,934",,0,,Europe/Prague,0,
2:105:JDFS-13,,"Blšany,Liběšovice,Čárka",,,,937,,0,,Europe/Prague,0,
2:105:JDFS-12,,"Blšany,Siřem",,,,937,,0,,Europe/Prague,0,
2:106:JDFS-27,,"Zabrušany,vodárna",,,,493,,0,,Europe/Prague,0,
2:106:JDFS-26,,Zabrušany,,,,493,,0,,Europe/Prague,0,
2:106:JDFS-11,,"Hostomice,kolonie",,50.588937,13.793687,481,,0,,Europe/Prague,0,
2:107:JDFS-17,,"Chabařovice,Besta",,,,123,,0,,Europe/Prague,0,
2:107:JDFS-16,,"Chabařovice,Teplická",,,,123,,0,,Europe/Prague,0,
2:108:JDFS-2,,"Nepomyšl,Dvérce",,,,"943,943",,0,,Europe/Prague,0,
2:108:JDFS-6,,Nepomyšl,,,,943,,0,,Europe/Prague,0,
2:108:JDFS-7,,"Nepomyšl,Dvérecká",,,,943,,0,,Europe/Prague,0,
2:108:JDFS-8,,"Nepomyšl,kostel",,,,943,,0,,Europe/Prague,0,
2:108:JDFS-9,,Podbořanský Rohozec,,,,949,,0,,Europe/Prague,0,
2:109:JDFS-1,,"Býčkovice,rozc.",,,,628,,0,,Europe/Prague,0,
2:109:JDFS-10,,"Litoměřice,Na mýtě",,,,601,,0,,Europe/Prague,0,
2:109:JDFS-11,,"Litoměřice,u stadionu",,,,601,,0,,Europe/Prague,0,
2:109:JDFS-13,,"Křešice,Nučnice",,,,672,,0,,Europe/Prague,0,
2:109:JDFS-14,,"Polepy,Okna",,50.504462,14.239432,671,,0,,Europe/Prague,0,
2:109:JDFS-15,,"Ploskovice,rozc.1.5",,50.550154,14.204604,622,,0,,Europe/Prague,0,
2:109:JDFS-16,,"Polepy,stará škola",,,,671,,0,,Europe/Prague,0,
2:109:JDFS-17,,"Polepy,rozc.",,50.504348,14.251582,671,,0,,Europe/Prague,0,
2:109:JDFS-18,,"Polepy,škola",,,,671,,0,,Europe/Prague,0,
2:109:JDFS-19,,"Polepy,žel.st.",,,,671,,0,,Europe/Prague,0,
2:109:JDFS-2,,"Štětí,Hněvice,žel.st.",,,,651,,0,,Europe/Prague,0,
2:109:JDFS-20,,"Vrutice,Svařenice",,,,655,,0,,Europe/Prague,0,
2:109:JDFS-23,,"Štětí,zdymadla",,,,651,,0,,Europe/Prague,0,
2:109:JDFS-24,,Trnovany,,50.54274,14.179492,626,,0,,Europe/Prague,0,
2:109:JDFS-25,,"Býčkovice,Velký Újezd",,,,628,,0,,Europe/Prague,0,
2:109:JDFS-26,,Vrutice,,50.501965,14.290139,655,,0,,Europe/Prague,0,
2:109:JDFS-27,,"Křešice,Zahořany",,,,672,,0,,Europe/Prague,0,
2:109:JDFS-29,,"Křešice,Kolonie",,,,672,,0,,Europe/Prague,0,
2:109:JDFS-30,,"Polepy,u přejezdu",,,,671,,0,,Europe/Prague,0,
2:109:JDFS-6,,Křešice,,,,672,,0,,Europe/Prague,0,
2:109:JDFS-7,,"Křešice,školka",,,,672,,0,,Europe/Prague,0,
2:109:JDFS-8,,"Křešice,záv.",,,,672,,0,,Europe/Prague,0,
2:110:JDFS-12,,"Postoloprty,Seménkovice,rozc.",,50.36503,13.662613,812,,0,,Europe/Prague,0,
2:110:JDFS-2,,"Postoloprty,Březno,rozc.skanzen",,50.3526459,13.7480164,811,,0,,Europe/Prague,0,
2:111:JDFS-16,,"Lišany,ObÚ",,,,814,,0,,Europe/Prague,0,
2:112:JDFS-11,,"Litoměřice,žel.st.nákl.nádr.",,,,601,,0,,Europe/Prague,0,
2:112:JDFS-14,,"Liběšice,Soběnice,Horní Nezly",,,,627,,0,,Europe/Prague,0,
2:112:JDFS-15,,"Ploskovice,Starý Mlýnec,rozc.",,,,622,,0,,Europe/Prague,0,
2:112:JDFS-18,,"Křešice,Třeboutice",,,,672,,0,,Europe/Prague,0,
2:112:JDFS-23,,"Třebušín,Řepčice",,,,621,,0,,Europe/Prague,0,
2:112:JDFS-24,,"Ploskovice,Vinné",,50.584077,14.207613,622,,0,,Europe/Prague,0,
2:112:JDFS-5,,"Třebušín,Kotelice",,,,621,,0,,Europe/Prague,0,
2:112:JDFS-9,,"Litoměřice,Na vinici",,,,601,,0,,Europe/Prague,0,
2:113:JDFS-1,,Bříza,,,,691,,0,,Europe/Prague,0,
2:113:JDFS-10,,Mnetěš,,,,696,,0,,Europe/Prague,0,
2:113:JDFS-2,,Ctiněves,,,,694,,0,,Europe/Prague,0,
2:113:JDFS-21,,"Krabčice,Rovné,rozc.1.0",,,,685,,0,,Europe/Prague,0,
2:113:JDFS-22,,Straškov-Vodochody,,,,693,,0,,Europe/Prague,0,
2:113:JDFS-23,,"Straškov-Vodochody,škola",,,,693,,0,,Europe/Prague,0,
2:113:JDFS-24,,"Straškov-Vodochody,žel.st.",,,,693,,0,,Europe/Prague,0,
2:113:JDFS-25,,"Krabčice,Vesce,rozc.1.0",,,,685,,0,,Europe/Prague,0,
2:113:JDFS-26,,Vražkov,,,,687,,0,,Europe/Prague,0,
2:113:JDFS-3,,"Ctiněves,žel.st.",,,,694,,0,,Europe/Prague,0,
2:113:JDFS-4,,Černouček,,,,"695,695",,0,,Europe/Prague,0,
2:113:JDFS-8,,Krabčice,,,,685,,0,,Europe/Prague,0,
2:113:JDFS-9,,Ledčice,,,,699,,0,,Europe/Prague,0,
2:114:JDFS-1,,"Úštěk,Brusov",,,,631,,0,,Europe/Prague,0,
2:114:JDFS-10,,"Úštěk,Starý Týn,rozc.",,,,631,,0,,Europe/Prague,0,
2:114:JDFS-15,,"Úštěk,Ličenice,rozc.",,,,631,,0,,Europe/Prague,0,
2:114:JDFS-3,,"Úštěk,Držovice",,,,631,,0,,Europe/Prague,0,
2:114:JDFS-7,,"Úštěk,Konojedy",,,,631,,0,,Europe/Prague,0,
2:114:JDFS-9,,"Úštěk,Starý Týn",,,,631,,0,,Europe/Prague,0,
2:115:JDFS-7,,"Křešice,ústav",,,,672,,0,,Europe/Prague,0,
2:115:JDFS-5,,"Úštěk,Julčín",,,,634,,0,,Europe/Prague,0,
2:115:JDFS-4,,"Polepy,Hrušovany",,,,671,,0,,Europe/Prague,0,
2:115:JDFS-3,,"Polepy,Encovany",,50.528774,14.24898,671,,0,,Europe/Prague,0,
2:115:JDFS-2,,Drahobuz,,50.525524,14.320353,637,,0,,Europe/Prague,0,
2:115:JDFS-19,,"Úštěk,Vědlice",,,,634,,0,,Europe/Prague,0,
2:115:JDFS-12,,"Hoštka,Malešov,rozc.",,,,654,,0,,Europe/Prague,0,
2:115:JDFS-1,,"Polepy,Encovany,Dolní Encovany",,50.524097,14.24528,671,,0,,Europe/Prague,0,
2:117:JDFS-2,,"Habartice,Háj",,,,591,,0,,Europe/Prague,0,
2:117:JDFS-23,,"Libědice,Čejkovice",,,,566,,0,,Europe/Prague,0,
2:117:JDFS-3,,Kadaňský Rohozec,,,,591,,0,,Europe/Prague,0,
2:117:JDFS-5,,"Mašťov,nám.",,,,592,,0,,Europe/Prague,0,
2:117:JDFS-6,,"Mašťov,statek",,,,592,,0,,Europe/Prague,0,
2:117:JDFS-9,,Radechov,,50.286114,13.269753,591,,0,,Europe/Prague,0,
2:118:JDFS-12,,"Úštěk,Lhota,rozc.0.7",,,,631,,0,,Europe/Prague,0,
2:118:JDFS-13,,"Hoštka,Malešov",,,,654,,0,,Europe/Prague,0,
2:118:JDFS-19,,"Drahobuz,Strážiště,rozc.",,,,637,,0,,Europe/Prague,0,
2:118:JDFS-22,,"Úštěk,Tetčiněves",,,,634,,0,,Europe/Prague,0,
2:118:JDFS-24,,"Úštěk,údolí",,,,631,,0,,Europe/Prague,0,
2:118:JDFS-28,,"Úštěk,Rochov",,,,634,,0,,Europe/Prague,0,
2:118:JDFS-29,,"Štětí,Hněvice,rozc.žel.st.",,,,651,,0,,Europe/Prague,0,
2:118:JDFS-3,,"Štětí,Hněvice,obec",,,,651,,0,,Europe/Prague,0,
2:118:JDFS-4,,"Štětí,Hněvice,čerp.st.",,,,651,,0,,Europe/Prague,0,
2:118:JDFS-6,,Horní Počaply,,,,658,,0,,Europe/Prague,0,
2:118:JDFS-7,,"Horní Počaply,žel.st.",,,,658,,0,,Europe/Prague,0,
2:119:JDFS-1,,Hora Sv.Šebestiána,,,,524,,0,,Europe/Prague,0,
2:119:JDFS-11,,"Křimov,Krásná Lípa",,,,521,,0,,Europe/Prague,0,
2:119:JDFS-12,,"Křimov,Domina,žel.st.",,,,521,,0,,Europe/Prague,0,
2:119:JDFS-13,,"Křimov,Domina",,,,521,,0,,Europe/Prague,0,
2:119:JDFS-14,,"Křimov,Suchdol,rozc.",,,,521,,0,,Europe/Prague,0,
2:119:JDFS-15,,"Hora Sv.Šebestiána,Nová Ves",,,,524,,0,,Europe/Prague,0,
2:119:JDFS-16,,"Křimov,Strážky",,,,521,,0,,Europe/Prague,0,
2:119:JDFS-19,,"Chomutov,Lipská II",,50.467775,13.394035,501,,0,,Europe/Prague,0,
2:119:JDFS-20,,"Hora Sv.Šebestiána,CLO",,,,N,,0,,Europe/Prague,0,
2:119:JDFS-21,,"Marienberg,Neues Haus",,50.594664,13.18078,33,,0,,Europe/Prague,0,
2:119:JDFS-22,,"Reitzenhain,Kfz-Werkstatt",,50.5650177,13.2194023,33,,0,,Europe/Prague,0,
2:119:JDFS-23,,"Marienberg,Reitzenhainer Str.",,50.6481743,13.1599789,26,,0,,Europe/Prague,0,
2:119:JDFS-3,,Křimov,,,,521,,0,,Europe/Prague,0,
2:119:JDFS-4,,"Křimov,nádr.",,,,521,,0,,Europe/Prague,0,
2:119:JDFS-5,,"Křimov,nádr.rozc.",,,,521,,0,,Europe/Prague,0,
2:119:JDFS-6,,"Marienberg,Markt",,50.65119,13.1634941,26,,0,,Europe/Prague,0,
2:119:JDFS-7,,"Reitzenhain,ZOLL",,,,N,,0,,Europe/Prague,0,
2:119:JDFS-8,,"Reitzenhain,Wendeschleife",,50.55736,13.2188025,33,,0,,Europe/Prague,0,
2:120:JDFS-10,,"Louka u Litvínova,Husova",,,,221,,0,,Europe/Prague,0,
2:120:JDFS-11,,"Mariánské Radčice,důl Kohinoor",,,,221,,0,,Europe/Prague,0,
2:120:JDFS-12,,"Mariánské Radčice,otočka",,,,221,,0,,Europe/Prague,0,
2:120:JDFS-13,,"Mariánské Radčice,pož.zbroj.",,,,221,,0,,Europe/Prague,0,
2:120:JDFS-14,,"Litvínov,Ruská ul.",,,,221,,0,,Europe/Prague,0,
2:120:JDFS-5,,"Litvínov,Tržní",,,,221,,0,,Europe/Prague,0,
2:120:JDFS-6,,"Louka u Litvínova,kulturní dům",,,,221,,0,,Europe/Prague,0,
2:120:JDFS-7,,"Louka u Litvínova,Sokolovská",,,,221,,0,,Europe/Prague,0,
2:120:JDFS-8,,"Louka u Litvínova,u nádraží",,,,221,,0,,Europe/Prague,0,
2:120:JDFS-9,,"Louka u Litvínova,u rybníčka",,,,221,,0,,Europe/Prague,0,
2:121:JDFS-15,,"Lovosice,záv.2",,,,701,,0,,Europe/Prague,0,
2:121:JDFS-16,,"Lukavec,prodejna",,50.500977,14.087235,769,,0,,Europe/Prague,0,
2:121:JDFS-17,,"Terezín,Nové Kopisty",,,,763,,0,,Europe/Prague,0,
2:121:JDFS-18,,"Podsedice,rozc.1.0",,50.47511,13.949907,734,,0,,Europe/Prague,0,
2:121:JDFS-2,,"Třebívlice,Dřemčice",,,,"751,751",,0,,Europe/Prague,0,
2:121:JDFS-3,,"Třebívlice,Dřemčice,rozc.0.5",,,,751,,0,,Europe/Prague,0,
2:121:JDFS-4,,"Podsedice,Chrášťany,rozc.1.0",,,,751,,0,,Europe/Prague,0,
2:121:JDFS-6,,Keblice,,50.483417,14.106461,768,,0,,Europe/Prague,0,
2:121:JDFS-7,,"Keblice,cihelna",,50.489312,14.09814,768,,0,,Europe/Prague,0,
2:121:JDFS-8,,"Libčeves,Lahovice,rozc.",,,,851,,0,,Europe/Prague,0,
2:122:JDFS-25,,"Košťany,škola",,,,447,,0,,Europe/Prague,0,
2:123:JDFS-9,,"Mšené-lázně,Loucká",,,,777,,0,,Europe/Prague,0,
2:123:JDFS-7,,"Libochovice,Husova",,50.410013,14.046613,721,,0,,Europe/Prague,0,
2:123:JDFS-35,,"Černiv,ObÚ",,,,718,,0,,Europe/Prague,0,
2:123:JDFS-33,,"Mšené-lázně,Vrbice",,,,776,,0,,Europe/Prague,0,
2:123:JDFS-32,,"Čížkovice,Želechovice,obora",,,,711,,0,,Europe/Prague,0,
2:123:JDFS-31,,"Čížkovice,Želechovice",,,,711,,0,,Europe/Prague,0,
2:123:JDFS-29,,Úpohlavy,,,,717,,0,,Europe/Prague,0,
2:123:JDFS-27,,Slatina,,50.42994,14.037495,728,,0,,Europe/Prague,0,
2:123:JDFS-2,,Čížkovice,,,,711,,0,,Europe/Prague,0,
2:124:JDFS-1,,"Jiříkov,Elitex",,,,"382,382",,0,,Europe/Prague,0,
2:124:JDFS-12,,"Varnsdorf,mlékárna",,,,371,,0,,Europe/Prague,0,
2:124:JDFS-14,,"Seifhennersdorf,Grenze Varnsdorf",,50.924454,14.60776,"293,N",,0,,Europe/Prague,0,
2:124:JDFS-15,,"Jiříkov,Vyhlídka",,,,382,,0,,Europe/Prague,0,
2:124:JDFS-16,,"Jiříkov,Filipov,kino",,,,382,,0,,Europe/Prague,0,
2:124:JDFS-17,,"Jiříkov,Filipov,kostel",,,,382,,0,,Europe/Prague,0,
2:124:JDFS-18,,"Rumburk,kult.dům",,,,381,,0,,Europe/Prague,0,
2:124:JDFS-19,,"Rumburk,Horní Jindřichov,Bytex 06",,,,381,,0,,Europe/Prague,0,
2:124:JDFS-20,,"Rumburk,Horní Jindřichov,Rybena",,,,381,,0,,Europe/Prague,0,
2:124:JDFS-21,,"Varnsdorf,5.května",,,,371,,0,,Europe/Prague,0,
2:124:JDFS-22,,"Seifhennersdorf,Zollstr.",,50.930485,14.615385,"293,N",,0,,Europe/Prague,0,
2:124:JDFS-23,,"Seifhennersdorf,Grenze Rumburk",,50.939422,14.586043,"293,N",,0,,Europe/Prague,0,
2:124:JDFS-24,,"Ebersbach,Bahnhof",,51.00445,14.577633,"291,N",,0,,Europe/Prague,0,
2:124:JDFS-25,,"Varnsdorf,Žitavská",,,,371,,0,,Europe/Prague,0,
2:124:JDFS-26,,"Großschönau,Cafe",,,,"295,N,295,N",,0,,Europe/Prague,0,
2:124:JDFS-27,,"Großschönau,Jonsdorfer Straße",,,,"295,N",,0,,Europe/Prague,0,
2:124:JDFS-28,,"Großschönau,Oberdorf",,,,"295,N",,0,,Europe/Prague,0,
2:124:JDFS-29,,"Großschönau,Schießwiese",,,,"295,N",,0,,Europe/Prague,0,
2:124:JDFS-3,,"Jiříkov,škola",,,,382,,0,,Europe/Prague,0,
2:124:JDFS-30,,"Großschönau,Trixi-Park",,,,"295,N",,0,,Europe/Prague,0,
2:124:JDFS-31,,"Großschönau,Weinhaus",,,,"295,N",,0,,Europe/Prague,0,
2:124:JDFS-32,,"Seifhennersdorf,Gymnasium",,50.936075,14.605536,"293,N",,0,,Europe/Prague,0,
2:124:JDFS-33,,"Jiříkov,CLO",,,,"x,x",,0,,Europe/Prague,0,
2:124:JDFS-34,,"Neugersdorf,ZOLL",,,,"x,N,x,N",,0,,Europe/Prague,0,
2:124:JDFS-35,,"Varnsdorf,CLO",,,,"x,x",,0,,Europe/Prague,0,
2:124:JDFS-36,,"Rumburk,CLO",,,,x,,0,,Europe/Prague,0,
2:124:JDFS-37,,"Seifhennersdorf,ZOLL",,50.930485,14.615385,"x,N,x,N",,0,,Europe/Prague,0,
2:124:JDFS-38,,"Großschönau,Bahnhof",,,,"295,N",,0,,Europe/Prague,0,
2:124:JDFS-39,,"Seifhennersdorf,Am Bahnhof",,50.934534,14.613795,"293,N",,0,,Europe/Prague,0,
2:124:JDFS-4,,"Jiříkov,Zahradní",,,,382,,0,,Europe/Prague,0,
2:124:JDFS-40,,"Seifhennersdorf,Oberschule",,50.937007,14.596394,"293,N",,0,,Europe/Prague,0,
2:124:JDFS-41,,"Großschönau,ZOLL",,,,"x,N",,0,,Europe/Prague,0,
2:125:JDFS-1,,Deštnice,,,,923,,0,,Europe/Prague,0,
2:125:JDFS-10,,"Měcholupy,žel.přejezd",,,,921,,0,,Europe/Prague,0,
2:125:JDFS-11,,"Holedeč,Stránky,rozc.",,,,922,,0,,Europe/Prague,0,
2:125:JDFS-12,,"Holedeč,Veletice",,50.2969055,13.5758724,922,,0,,Europe/Prague,0,
2:125:JDFS-15,,"Žatec,Sv.Čecha",,,,901,,0,,Europe/Prague,0,
2:125:JDFS-16,,"Žatec,teplárna Perč",,,,901,,0,,Europe/Prague,0,
2:125:JDFS-19,,"Měcholupy,Želeč",,,,921,,0,,Europe/Prague,0,
2:125:JDFS-2,,"Deštnice,rozc.1.0",,,,923,,0,,Europe/Prague,0,
2:125:JDFS-20,,"Měcholupy,Želeč,rozc.",,,,921,,0,,Europe/Prague,0,
2:125:JDFS-3,,Holedeč,,,,922,,0,,Europe/Prague,0,
2:125:JDFS-4,,"Holedeč,Holedeček",,,,"922,922",,0,,Europe/Prague,0,
2:125:JDFS-6,,"Měcholupy,škola",,,,921,,0,,Europe/Prague,0,
2:125:JDFS-7,,"Měcholupy,Milošice",,,,921,,0,,Europe/Prague,0,
2:125:JDFS-8,,"Deštnice,Nová Hospoda rozc.",,,,924,,0,,Europe/Prague,0,
2:125:JDFS-9,,"Deštnice,rozc.Sádek",,,,922,,0,,Europe/Prague,0,
2:126:JDFS-1,,"Homole u Panny,Bláhov",,50.63175,14.202651,154,,0,,Europe/Prague,0,
2:126:JDFS-11,,"Petrovice,Krásný Les,rozc.Nakléřov",,,,125,,0,,Europe/Prague,0,
2:126:JDFS-12,,"Homole u Panny,Lhota p.Pannou",,50.629999,14.166503,154,,0,,Europe/Prague,0,
2:126:JDFS-13,,"Homole u Panny,Lhota p.Pannou,rozc.",,50.629333,14.168952,154,,0,,Europe/Prague,0,
2:126:JDFS-14,,"Homole u Panny,Lhota p.Pannou,samota",,50.628667,14.171401,154,,0,,Europe/Prague,0,
2:126:JDFS-15,,"Homole u Panny,Nová Ves u Pláně",,,,154,,0,,Europe/Prague,0,
2:126:JDFS-16,,"Homole u Panny,Suletice",,50.6417046,14.1692791,154,,0,,Europe/Prague,0,
2:126:JDFS-18,,"Telnice,háj.",,,,124,,0,,Europe/Prague,0,
2:126:JDFS-19,,"Telnice,Lesní zámeček",,,,124,,0,,Europe/Prague,0,
2:126:JDFS-2,,"Homole u Panny,Byňov",,,,154,,0,,Europe/Prague,0,
2:126:JDFS-20,,"Telnice,rozc.Krásný Les",,,,124,,0,,Europe/Prague,0,
2:126:JDFS-21,,"Telnice,Zadní Telnice",,50.73585,13.9268112,124,,0,,Europe/Prague,0,
2:126:JDFS-22,,"Telnice,žel.st.",,,,124,,0,,Europe/Prague,0,
2:126:JDFS-29,,"Ústí n.L.,Všebořická",,,,101,,0,,Europe/Prague,0,
2:126:JDFS-3,,"Homole u Panny,Byňov,odb.Proboštov",,,,154,,0,,Europe/Prague,0,
2:126:JDFS-34,,"Telnice,Varvažov,čtyřdomí",,,,124,,0,,Europe/Prague,0,
2:126:JDFS-35,,"Telnice,Varvažov",,,,124,,0,,Europe/Prague,0,
2:126:JDFS-36,,"Telnice,Varvažov,pomníky",,,,124,,0,,Europe/Prague,0,
2:126:JDFS-37,,"Velké Březno,škola",,,,151,,0,,Europe/Prague,0,
2:126:JDFS-39,,"Velké Březno,Vítov",,,,151,,0,,Europe/Prague,0,
2:126:JDFS-4,,"Homole u Panny,Haslice",,50.623871,14.199239,154,,0,,Europe/Prague,0,
2:126:JDFS-40,,"Chlumec,Žandov,rozc.",,,,121,,0,,Europe/Prague,0,
2:126:JDFS-45,,"Ústí n.L.,Bukov",,,,101,,0,,Europe/Prague,0,
2:126:JDFS-49,,"Ústí n.L.,Všebořice,Havířská",,,,101,,0,,Europe/Prague,0,
2:126:JDFS-5,,Homole u Panny,,50.629359,14.186343,154,,0,,Europe/Prague,0,
2:126:JDFS-6,,"Homole u Panny,rozc.Doubravice",,50.629208,14.205931,154,,0,,Europe/Prague,0,
2:127:JDFS-13,,"Vejprty,Nové Zvolání,černý kříž",,,,551,,0,,Europe/Prague,0,
2:127:JDFS-15,,"Vejprty,viadukt",,50.48312,13.031789,551,,0,,Europe/Prague,0,
2:127:JDFS-17,,"Loučná,MěÚ",,,,556,,0,,Europe/Prague,0,
2:127:JDFS-18,,"Kovářská,Dlouhá",,,,554,,0,,Europe/Prague,0,
2:128:JDFS-11,,"Jesenice,Chotěšov",,,,954,,0,,Europe/Prague,0,
2:128:JDFS-3,,"Jesenice,nám.",,,,954,,0,,Europe/Prague,0,
2:128:JDFS-4,,"Jesenice,žel.st.",,,,954,,0,,Europe/Prague,0,
2:129:JDFS-1,,"Dubí,hotel Sport",,50.694305,13.769094,421,,0,,Europe/Prague,0,
2:129:JDFS-29,,"Teplice,Dopravní podnik",,50.65616,13.832313,401,,0,,Europe/Prague,0,
2:129:JDFS-4,,"Dubí,žel.st.",,,,421,,0,,Europe/Prague,0,
2:130:JDFS-12,,"Varnsdorf,Východní škola",,,,,,0,,Europe/Prague,0,
2:130:JDFS-13,,"Varnsdorf,policie",,50.91872,14.6196182,,,0,,Europe/Prague,0,
2:130:JDFS-14,,"Varnsdorf,staré nádraží",,,,,,0,,Europe/Prague,0,
2:130:JDFS-2,,"Varnsdorf,Bezručova",,,,,,0,,Europe/Prague,0,
2:130:JDFS-3,,"Varnsdorf,Budyšínská",,,,,,0,,Europe/Prague,0,
2:130:JDFS-4,,"Varnsdorf,Horská",,50.904196,14.619666,,,0,,Europe/Prague,0,
2:130:JDFS-5,,"Varnsdorf,Kamenická",,50.9163551,14.6134062,,,0,,Europe/Prague,0,
2:130:JDFS-6,,"Varnsdorf,Karla IV.",,50.898897,14.61911,,,0,,Europe/Prague,0,
2:130:JDFS-7,,"Varnsdorf,nem.",,50.8947029,14.6124182,,,0,,Europe/Prague,0,
2:130:JDFS-9,,"Varnsdorf,pošta",,,,,,0,,Europe/Prague,0,
2:131:JDFS-4,,"Bílina,sídl.ZCH sběrna",,,,461,,0,,Europe/Prague,0,
2:131:JDFS-31,,"Kladruby,náves",,,,485,,0,,Europe/Prague,0,
2:131:JDFS-3,,"Bílina,sídl.ZCH Litoměřická",,,,461,,0,,Europe/Prague,0,
2:131:JDFS-22,,"Ohníč,Karola",,,,482,,0,,Europe/Prague,0,
2:131:JDFS-21,,"Světec,Úpoř",,,,486,,0,,Europe/Prague,0,
2:131:JDFS-18,,"Ohníč,Pňovičky",,,,482,,0,,Europe/Prague,0,
2:131:JDFS-17,,"Ohníč,mlýn",,,,482,,0,,Europe/Prague,0,
2:131:JDFS-16,,Ohníč,,,,482,,0,,Europe/Prague,0,
2:131:JDFS-14,,"Ledvice,kino",,50.5848923,13.7730942,484,,0,,Europe/Prague,0,
2:131:JDFS-13,,"Ohníč,Křemýž",,,,482,,0,,Europe/Prague,0,
2:132:JDFS-1,,"Povrly,Český Bukov",,,,141,,0,,Europe/Prague,0,
2:132:JDFS-10,,"Povrly,ObÚ",,,,141,,0,,Europe/Prague,0,
2:132:JDFS-11,,"Povrly,sídliště",,,,141,,0,,Europe/Prague,0,
2:132:JDFS-12,,"Povrly,učiliště",,,,141,,0,,Europe/Prague,0,
2:132:JDFS-13,,"Povrly,Slavošov",,,,142,,0,,Europe/Prague,0,
2:132:JDFS-14,,"Povrly,Šachov,rozc.",,,,142,,0,,Europe/Prague,0,
2:132:JDFS-16,,"Ústí n.L.,Neštěmice,Květ",,,,101,,0,,Europe/Prague,0,
2:132:JDFS-17,,"Ústí n.L.,pivovar",,,,101,,0,,Europe/Prague,0,
2:132:JDFS-18,,"Povrly,háj.",,,,141,,0,,Europe/Prague,0,
2:132:JDFS-2,,"Povrly,Lužec",,,,142,,0,,Europe/Prague,0,
2:132:JDFS-3,,"Povrly,Lysá,rozc.",,50.708567,14.127294,142,,0,,Europe/Prague,0,
2:132:JDFS-4,,"Povrly,Mírkov",,,,142,,0,,Europe/Prague,0,
2:132:JDFS-5,,"Povrly,Mírkov,samota",,,,142,,0,,Europe/Prague,0,
2:132:JDFS-6,,"Ústí n.L.,Mojžíř,sídl.",,,,101,,0,,Europe/Prague,0,
2:132:JDFS-7,,"Ústí n.L.,Mojžíř,Veselí",,,,101,,0,,Europe/Prague,0,
2:132:JDFS-8,,"Povrly,Neštědice",,,,141,,0,,Europe/Prague,0,
2:132:JDFS-9,,"Povrly,koupaliště",,,,141,,0,,Europe/Prague,0,
2:133:JDFS-1,,"Benešov n.Pl.,Bedřichov záv.",,,,331,,0,,Europe/Prague,0,
2:133:JDFS-15,,"Děčín,Březiny,hor.",,,,301,,0,,Europe/Prague,0,
2:133:JDFS-19,,"Františkov n.Pl.,Ostrý",,,,332,,0,,Europe/Prague,0,
2:133:JDFS-20,,"Františkov n.Pl.,pila",,,,332,,0,,Europe/Prague,0,
2:133:JDFS-21,,"Františkov n.Pl.,Valkeřické rozc.",,,,332,,0,,Europe/Prague,0,
2:133:JDFS-22,,"Františkov n.Pl.,záv.",,,,332,,0,,Europe/Prague,0,
2:133:JDFS-23,,"Malá Veleň,Jedlka,rozc.",,,,339,,0,,Europe/Prague,0,
2:133:JDFS-24,,"Malá Veleň,Jedlka,záv.",,,,339,,0,,Europe/Prague,0,
2:133:JDFS-36,,"Verneřice,Příbram,dol.",,,,336,,0,,Europe/Prague,0,
2:133:JDFS-37,,"Verneřice,Příbram,rozc.",,,,336,,0,,Europe/Prague,0,
2:133:JDFS-38,,"Verneřice,Rychnov",,,,336,,0,,Europe/Prague,0,
2:133:JDFS-39,,"Malá Veleň,Soutěsky",,,,339,,0,,Europe/Prague,0,
2:133:JDFS-4,,"Benešov n.Pl.,u čerp.st.",,,,331,,0,,Europe/Prague,0,
2:133:JDFS-40,,"Valkeřice,hřiště",,,,337,,0,,Europe/Prague,0,
2:133:JDFS-41,,"Valkeřice,pošta",,,,337,,0,,Europe/Prague,0,
2:133:JDFS-42,,"Valkeřice,u Benešů",,,,337,,0,,Europe/Prague,0,
2:133:JDFS-43,,"Valkeřice,u kostela",,,,337,,0,,Europe/Prague,0,
2:133:JDFS-44,,"Valkeřice,u Macháčků",,,,337,,0,,Europe/Prague,0,
2:133:JDFS-45,,"Valkeřice,u Sedláčků",,,,337,,0,,Europe/Prague,0,
2:133:JDFS-47,,"Verneřice,statek",,,,336,,0,,Europe/Prague,0,
2:133:JDFS-49,,"Verneřice,sušička",,,,336,,0,,Europe/Prague,0,
2:133:JDFS-5,,"Benešov n.Pl.,záv.I",,,,331,,0,,Europe/Prague,0,
2:133:JDFS-52,,"Verneřice,Čáslav,rozc.",,,,336,,0,,Europe/Prague,0,
2:134:JDFS-1,,Kamýk,,,,613,,0,,Europe/Prague,0,
2:134:JDFS-10,,Miřejovice,,,,619,,0,,Europe/Prague,0,
2:134:JDFS-11,,"Miřejovice,váha",,,,619,,0,,Europe/Prague,0,
2:134:JDFS-3,,"Litoměřice,Knobloška rozc.",,,,613,,0,,Europe/Prague,0,
2:134:JDFS-5,,"Litoměřice,předměstí",,,,601,,0,,Europe/Prague,0,
2:134:JDFS-8,,"Litoměřice,Kamýcká",,,,601,,0,,Europe/Prague,0,
2:135:JDFS-13,,"Rybniště,žel.st.",,,,363,,0,,Europe/Prague,0,
2:135:JDFS-24,,"Chřibská,Horní Chřibská",,,,361,,0,,Europe/Prague,0,
2:135:JDFS-25,,"Chřibská,Horní Chřibská,sklárna",,,,361,,0,,Europe/Prague,0,
2:135:JDFS-26,,"Chřibská,Krásné Pole",,,,361,,0,,Europe/Prague,0,
2:135:JDFS-28,,"Varnsdorf,Bratislavská",,50.9104958,14.6402216,371,,0,,Europe/Prague,0,
2:135:JDFS-29,,"Varnsdorf,Vasped",,50.9080162,14.64871,371,,0,,Europe/Prague,0,
2:135:JDFS-31,,"Horní Podluží,žel.zast.",,,,364,,0,,Europe/Prague,0,
2:135:JDFS-32,,"Horní Podluží,u křížku",,,,364,,0,,Europe/Prague,0,
2:135:JDFS-9,,"Chřibská,škola",,,,361,,0,,Europe/Prague,0,
2:136:JDFS-15,,"Dubí,Bystřice,papírny",,,,421,,0,,Europe/Prague,0,
2:136:JDFS-25,,"Košťany,Střelná,u kapličky",,,,447,,0,,Europe/Prague,0,
2:136:JDFS-27,,"Novosedlice,Bystřická",,,,421,,0,,Europe/Prague,0,
2:136:JDFS-29,,"Novosedlice,SEKO",,50.6642,13.815341,421,,0,,Europe/Prague,0,
2:137:JDFS-10,,"Chotěšov,žel.st.",,,,713,,0,,Europe/Prague,0,
2:137:JDFS-20,,"Litoměřice,Želetická",,,,601,,0,,Europe/Prague,0,
2:137:JDFS-23,,Rochov,,50.461107,14.118559,719,,0,,Europe/Prague,0,
2:137:JDFS-29,,"Bohušovice n.Ohří,Hrdly,obec",,,,761,,0,,Europe/Prague,0,
2:137:JDFS-30,,"Dolánky n.Ohří,obec",,,,764,,0,,Europe/Prague,0,
2:137:JDFS-33,,"Chotěšov,Na Návsi",,,,713,,0,,Europe/Prague,0,
2:137:JDFS-34,,"Vrbičany,rozc.",,,,712,,0,,Europe/Prague,0,
2:137:JDFS-6,,Černiv,,,,718,,0,,Europe/Prague,0,
2:138:JDFS-10,,"Mikulášovice,hor.-Sv.Hubert",,,,393,,0,,Europe/Prague,0,
2:138:JDFS-16,,"Rumburk,rest.Zátiší",,,,381,,0,,Europe/Prague,0,
2:138:JDFS-19,,"Rybniště,u hřbitova",,,,363,,0,,Europe/Prague,0,
2:138:JDFS-21,,"Rybniště,Nová Ves",,,,363,,0,,Europe/Prague,0,
2:138:JDFS-24,,"Staré Křečany,U Slov.lípy",,,,384,,0,,Europe/Prague,0,
2:138:JDFS-28,,"Vilémov,klub",,,,394,,0,,Europe/Prague,0,
2:138:JDFS-30,,"Dolní Poustevna,Karlín",,,,397,,0,,Europe/Prague,0,
2:138:JDFS-31,,"Dolní Poustevna,Karlín,rozc.",,,,397,,0,,Europe/Prague,0,
2:138:JDFS-37,,"Staré Křečany,Brtníky,rozc.",,,,385,,0,,Europe/Prague,0,
2:138:JDFS-38,,"Staré Křečany,Panský",,,,384,,0,,Europe/Prague,0,
2:138:JDFS-40,,"Krásná Lípa,žel.zast.město",,,,386,,0,,Europe/Prague,0,
2:138:JDFS-5,,"Krásná Lípa,Pražská",,,,386,,0,,Europe/Prague,0,
2:138:JDFS-6,,"Krásná Lípa,Tyršova",,,,386,,0,,Europe/Prague,0,
2:138:JDFS-7,,"Krásná Lípa,nádraží",,,,386,,0,,Europe/Prague,0,
2:138:JDFS-9,,"Mikulášovice,hor.",,,,393,,0,,Europe/Prague,0,
2:140:JDFS-16,,"Teplice,U Vlastního krbu",,,,401,,0,,Europe/Prague,0,
2:141:JDFS-1,,"Černěves,rozc.",,,,665,,0,,Europe/Prague,0,
2:141:JDFS-11,,"Chodouny,Lounky",,50.480139,14.239576,666,,0,,Europe/Prague,0,
2:141:JDFS-2,,Chodouny,,50.472185,14.250247,666,,0,,Europe/Prague,0,
2:141:JDFS-20,,"Vědomice,lesní školka",,,,665,,0,,Europe/Prague,0,
2:142:JDFS-14,,"Třebívlice,Staré",,,,752,,0,,Europe/Prague,0,
2:142:JDFS-15,,"Třebívlice,Staré,háj.",,,,752,,0,,Europe/Prague,0,
2:142:JDFS-17,,"Třebívlice,Šepetely,cesta",,,,751,,0,,Europe/Prague,0,
2:142:JDFS-20,,"Třebívlice,Skalice",,,,752,,0,,Europe/Prague,0,
2:142:JDFS-22,,"Úpohlavy,host.",,,,717,,0,,Europe/Prague,0,
2:142:JDFS-25,,Sedlec,,50.450827,14.015442,738,,0,,Europe/Prague,0,
2:142:JDFS-7,,"Třebívlice,Leská",,,,752,,0,,Europe/Prague,0,
2:142:JDFS-8,,Lkáň,,,,737,,0,,Europe/Prague,0,
2:143:JDFS-34,,"Děčín,Nám.5.května",,,,301,,0,,Europe/Prague,0,
2:143:JDFS-35,,"Děčín,Žerotínova",,,,301,,0,,Europe/Prague,0,
2:143:JDFS-36,,"Děčín,Křešice ČSPL učiliště",,,,301,,0,,Europe/Prague,0,
2:143:JDFS-37,,"Děčín,Křešice Fruta",,,,301,,0,,Europe/Prague,0,
2:143:JDFS-38,,"Děčín,Křešice škola",,,,301,,0,,Europe/Prague,0,
2:143:JDFS-39,,"Děčín,Boletice n.L.,Koruna",,,,301,,0,,Europe/Prague,0,
2:143:JDFS-4,,"Děčín,Zámecký rybník",,,,301,,0,,Europe/Prague,0,
2:143:JDFS-40,,"Děčín,Boletice n.L.,Lidový dům",,,,301,,0,,Europe/Prague,0,
2:143:JDFS-41,,"Děčín,Jakuby",,,,301,,0,,Europe/Prague,0,
2:143:JDFS-42,,"Těchlovice,rozc.",,,,312,,0,,Europe/Prague,0,
2:143:JDFS-43,,"Těchlovice,Zadní Lhota",,,,312,,0,,Europe/Prague,0,
2:143:JDFS-44,,"Těchlovice,Přerov",,,,312,,0,,Europe/Prague,0,
2:143:JDFS-6,,"Děčín,Nebočady",,,,301,,0,,Europe/Prague,0,
2:143:JDFS-7,,Těchlovice,,,,312,,0,,Europe/Prague,0,
2:144:JDFS-1,,"Hořenice,rozc.",,,,568,,0,,Europe/Prague,0,
2:144:JDFS-10,,Malé Krhovice,,50.335485,13.377478,568,,0,,Europe/Prague,0,
2:144:JDFS-11,,"Malé Krhovice,rozc.0.5",,50.333715,13.376854,568,,0,,Europe/Prague,0,
2:144:JDFS-13,,"Chbany,Poláky",,,,568,,0,,Europe/Prague,0,
2:144:JDFS-21,,Vadkovice,,50.339912,13.385208,568,,0,,Europe/Prague,0,
2:144:JDFS-23,,Vikletice,,50.348317,13.402793,568,,0,,Europe/Prague,0,
2:144:JDFS-3,,"Chbany,rozc.Chudeřín",,,,963,,0,,Europe/Prague,0,
2:144:JDFS-33,,"Chbany,Poláky,točna",,,,568,,0,,Europe/Prague,0,
2:145:JDFS-24,,"Ústí n.L.,Sociální péče",,,,101,,0,,Europe/Prague,0,
2:145:JDFS-25,,"Ústí n.L.,odb.Neznabohy",,,,101,,0,,Europe/Prague,0,
2:145:JDFS-27,,"Jílové,sídliště",,,,311,,0,,Europe/Prague,0,
2:146:JDFS-10,,"Podbořany,Oploty",,,,932,,0,,Europe/Prague,0,
2:146:JDFS-22,,"Čeradice,Kličín",,,,962,,0,,Europe/Prague,0,
2:146:JDFS-23,,"Podbořany,Kaštice,žel.přejezd",,,,932,,0,,Europe/Prague,0,
2:146:JDFS-4,,"Podbořany,Kaštice",,,,932,,0,,Europe/Prague,0,
2:146:JDFS-9,,"Podbořany,Neprobylice",,,,932,,0,,Europe/Prague,0,
2:147:JDFS-40,,"Bystřany,Domov důchodců",,,,458,,0,,Europe/Prague,0,
2:147:JDFS-22,,"Bystřany,Úpořiny,host.",,,,458,,0,,Europe/Prague,0,
2:147:JDFS-21,,"Bystřany,Úpořiny,has.zbroj.",,,,458,,0,,Europe/Prague,0,
2:147:JDFS-20,,"Bystřany,Úpořiny,rozc.",,,,458,,0,,Europe/Prague,0,
2:147:JDFS-18,,"Bystřany,škola",,,,458,,0,,Europe/Prague,0,
2:147:JDFS-1,,"Bystřany,žel.přejezd",,,,458,,0,,Europe/Prague,0,
2:149:JDFS-1,,Bečov,,,,241,,0,,Europe/Prague,0,
2:149:JDFS-11,,Nemilkov,,50.454056,13.620874,202,,0,,Europe/Prague,0,
2:149:JDFS-13,,"Obrnice,škola",,,,201,,0,,Europe/Prague,0,
2:149:JDFS-14,,"Obrnice,štěrkovna",,,,201,,0,,Europe/Prague,0,
2:149:JDFS-15,,"Bělušice,Odolice,osada",,,,245,,0,,Europe/Prague,0,
2:149:JDFS-16,,Patokryje,,50.50122,13.705676,201,,0,,Europe/Prague,0,
2:149:JDFS-18,,Polerady,,50.443985,13.653519,242,,0,,Europe/Prague,0,
2:149:JDFS-19,,"Svinčice,otočka",,,,247,,0,,Europe/Prague,0,
2:149:JDFS-2,,"Bělušice,Bedřichův Světec",,,,245,,0,,Europe/Prague,0,
2:149:JDFS-20,,"Svinčice,rozc.1.0",,,,247,,0,,Europe/Prague,0,
2:149:JDFS-22,,Volevčice,,,,243,,0,,Europe/Prague,0,
2:149:JDFS-23,,"Volevčice,za kostelem",,,,243,,0,,Europe/Prague,0,
2:149:JDFS-26,,"Most,Speciální škola",,,,201,,0,,Europe/Prague,0,
2:149:JDFS-28,,"Most,Sukova blok 508",,50.503398,13.654321,201,,0,,Europe/Prague,0,
2:149:JDFS-29,,"Lišnice,Koporeč",,,,202,,0,,Europe/Prague,0,
2:149:JDFS-3,,Bělušice,,,,245,,0,,Europe/Prague,0,
2:149:JDFS-7,,"Lišnice,rozc.",,,,202,,0,,Europe/Prague,0,
2:149:JDFS-8,,Lužice,,,,247,,0,,Europe/Prague,0,
2:150:JDFS-1,,"Bělušice,Bedřichův Světec,rozc.",,,,245,,0,,Europe/Prague,0,
2:150:JDFS-12,,Korozluky,,50.477209,13.724459,203,,0,,Europe/Prague,0,
2:150:JDFS-2,,"Bělušice,rozc.1.0",,,,245,,0,,Europe/Prague,0,
2:150:JDFS-23,,"Korozluky,Sedlec",,50.487058,13.7159,203,,0,,Europe/Prague,0,
2:150:JDFS-24,,"Skršín,odb.",,,,246,,0,,Europe/Prague,0,
2:150:JDFS-29,,"Třebívlice,rozc.0.5",,,,751,,0,,Europe/Prague,0,
2:150:JDFS-30,,"Libčeves,Židovice",,,,851,,0,,Europe/Prague,0,
2:150:JDFS-33,,"Patokryje,lávka",,,,201,,0,,Europe/Prague,0,
2:150:JDFS-34,,"Obrnice,sídliště",,,,201,,0,,Europe/Prague,0,
2:150:JDFS-8,,"Libčeves,Hnojnice",,,,851,,0,,Europe/Prague,0,
2:150:JDFS-9,,"Libčeves,Hořenec,rozc.",,,,851,,0,,Europe/Prague,0,
2:151:JDFS-12,,"Štětí,Ostrovní",,,,651,,0,,Europe/Prague,0,
2:151:JDFS-13,,"Štětí,Okružní",,,,651,,0,,Europe/Prague,0,
2:151:JDFS-14,,"Štětí,Stračenská",,,,651,,0,,Europe/Prague,0,
2:151:JDFS-2,,"Štětí,Stračí",,,,651,,0,,Europe/Prague,0,
2:151:JDFS-9,,"Štětí,žel.st.",,,,651,,0,,Europe/Prague,0,
2:152:JDFS-13,,"Krásný Dvůr,Němčany",,,,933,,0,,Europe/Prague,0,
2:152:JDFS-37,,"Krásný Dvůr,Brody,rozc.",,,,933,,0,,Europe/Prague,0,
2:152:JDFS-45,,"Vilémov,Zahořany",,,,561,,0,,Europe/Prague,0,
2:153:JDFS-17,,"Úštěk,předměstí",,,,631,,0,,Europe/Prague,0,
2:153:JDFS-23,,"Liběšice,Zimoř",,,,635,,0,,Europe/Prague,0,
2:153:JDFS-4,,Chotiněves,,,,673,,0,,Europe/Prague,0,
2:153:JDFS-5,,"Chotiněves,Jištěrpy",,,,673,,0,,Europe/Prague,0,
2:153:JDFS-9,,"Polepy,Libínky",,,,671,,0,,Europe/Prague,0,
2:154:JDFS-10,,Pnětluky,,,,833,,0,,Europe/Prague,0,
2:154:JDFS-11,,"Pnětluky,letovisko",,,,833,,0,,Europe/Prague,0,
2:154:JDFS-13,,Zbrašín,,,,823,,0,,Europe/Prague,0,
2:154:JDFS-14,,"Pnětluky,V domcích",,,,833,,0,,Europe/Prague,0,
2:154:JDFS-3,,"Zbrašín,Hořany",,,,823,,0,,Europe/Prague,0,
2:155:JDFS-5,,"Úštěk,Lukov,hl.sil.",,,,631,,0,,Europe/Prague,0,
2:155:JDFS-1,,"Úštěk,Lukov",,,,631,,0,,Europe/Prague,0,
2:156:JDFS-1,,"Štětí,Brocno",,,,653,,0,,Europe/Prague,0,
2:156:JDFS-10,,"Štětí,Újezd",,,,653,,0,,Europe/Prague,0,
2:156:JDFS-11,,"Štětí,Veselí",,,,653,,0,,Europe/Prague,0,
2:156:JDFS-13,,"Štětí,Radouň,Chcebuzská",,,,653,,0,,Europe/Prague,0,
2:156:JDFS-3,,"Štětí,Chcebuz",,,,"653,653",,0,,Europe/Prague,0,
2:157:JDFS-1,,"Stebno,Chvalov",,50.602478,14.0576019,113,,0,,Europe/Prague,0,
2:157:JDFS-10,,"Trmice,Panorama",,50.639646,14.011684,101,,0,,Europe/Prague,0,
2:157:JDFS-17,,"Trmice,Újezd",,,,101,,0,,Europe/Prague,0,
2:157:JDFS-18,,"Stebno,Milbohov,háj.",,50.623578,14.018312,101,,0,,Europe/Prague,0,
2:157:JDFS-2,,"Stebno,Milbohov",,50.626906,14.0183915,113,,0,,Europe/Prague,0,
2:157:JDFS-3,,"Stebno,Podlešín",,,,113,,0,,Europe/Prague,0,
2:157:JDFS-4,,Stebno,,50.243479,13.564126,"113,113",,0,,Europe/Prague,0,
2:157:JDFS-5,,"Stebno,Suchá",,,,113,,0,,Europe/Prague,0,
2:157:JDFS-8,,"Ústí n.L.,Hostovice",,,,101,,0,,Europe/Prague,0,
2:157:JDFS-9,,"Trmice,můstek",,,,101,,0,,Europe/Prague,0,
2:158:JDFS-1,,"Liběšice,Dobříčany",,,,844,,0,,Europe/Prague,0,
2:158:JDFS-11,,"Liběšice,Líčkov",,,,844,,0,,Europe/Prague,0,
2:158:JDFS-13,,"Mutějovice,K Nádraží",,,,832,,0,,Europe/Prague,0,
2:158:JDFS-14,,"Mutějovice,Lhota p.Džbánem",,,,831,,0,,Europe/Prague,0,
2:158:JDFS-15,,"Tuchořice,Nečemice",,,,839,,0,,Europe/Prague,0,
2:158:JDFS-16,,"Tuchořice,Nečemice,osada",,,,839,,0,,Europe/Prague,0,
2:158:JDFS-18,,"Pnětluky,háj.",,,,833,,0,,Europe/Prague,0,
2:158:JDFS-21,,"Tuchořice,Třeskonice,háj.",,,,839,,0,,Europe/Prague,0,
2:158:JDFS-22,,"Tuchořice,Třeskonice,výhledy",,,,839,,0,,Europe/Prague,0,
2:158:JDFS-25,,"Kounov,rozc.háj.",,,,832,,0,,Europe/Prague,0,
2:158:JDFS-26,,"Liběšice,Líčkov,Školní",,,,844,,0,,Europe/Prague,0,
2:158:JDFS-3,,Domoušice,,,,831,,0,,Europe/Prague,0,
2:158:JDFS-4,,"Domoušice,Filipov",,,,831,,0,,Europe/Prague,0,
2:158:JDFS-5,,"Domoušice,žel.st.",,,,831,,0,,Europe/Prague,0,
2:158:JDFS-6,,"Liběšice,Kluček",,,,844,,0,,Europe/Prague,0,
2:158:JDFS-7,,Kounov,,50.213743,13.671531,832,,0,,Europe/Prague,0,
2:158:JDFS-8,,"Kounov,rozc.",,50.214474,13.665793,832,,0,,Europe/Prague,0,
2:158:JDFS-9,,"Kounov,škola",,,,832,,0,,Europe/Prague,0,
2:159:JDFS-11,,"Hrobčice,Chouč,rozc.",,,,473,,0,,Europe/Prague,0,
2:159:JDFS-16,,"Hrobčice,Kučlín",,,,473,,0,,Europe/Prague,0,
2:159:JDFS-18,,"Lovosice,Jabloňová álej",,,,701,,0,,Europe/Prague,0,
2:159:JDFS-21,,Měrunice,,,,475,,0,,Europe/Prague,0,
2:159:JDFS-24,,"Hrobčice,Mirošovice,zámek",,,,473,,0,,Europe/Prague,0,
2:159:JDFS-25,,"Hrobčice,Mrzlice",,,,473,,0,,Europe/Prague,0,
2:159:JDFS-31,,"Hrobčice,Tvrdín",,,,473,,0,,Europe/Prague,0,
2:159:JDFS-35,,"Měrunice,Žichov",,,,475,,0,,Europe/Prague,0,
2:159:JDFS-39,,"Velemín,Režný Újezd,kaplička",,,,742,,0,,Europe/Prague,0,
2:159:JDFS-40,,"Kostomlaty p.Milešovkou,Pod Březinou",,,,456,,0,,Europe/Prague,0,
2:160:JDFS-1,,Lhotka n.L.,,50.524862,14.046667,782,,0,,Europe/Prague,0,
2:160:JDFS-10,,Malé Žernoseky,,,,781,,0,,Europe/Prague,0,
2:160:JDFS-11,,"Malé Žernoseky,Ústecká",,,,782,,0,,Europe/Prague,0,
2:160:JDFS-12,,Mlékojedy,,,,602,,0,,Europe/Prague,0,
2:160:JDFS-13,,"Mlékojedy,u hřiště",,,,602,,0,,Europe/Prague,0,
2:160:JDFS-14,,"Lovosice,Prosmyky",,50.517721,14.096449,701,,0,,Europe/Prague,0,
2:160:JDFS-3,,"Litoměřice,Mlékojedská",,,,601,,0,,Europe/Prague,0,
2:160:JDFS-9,,"Lovosice,žel.zast.",,,,701,,0,,Europe/Prague,0,
2:161:JDFS-1,,"Štětí,Čakovice",,,,653,,0,,Europe/Prague,0,
2:161:JDFS-10,,"Úštěk,Ostré",,,,631,,0,,Europe/Prague,0,
2:161:JDFS-12,,"Úštěk,Rašovice",,,,634,,0,,Europe/Prague,0,
2:161:JDFS-13,,"Úštěk,Robeč,dol.",,,,634,,0,,Europe/Prague,0,
2:161:JDFS-14,,"Úštěk,Robeč,hor.",,,,634,,0,,Europe/Prague,0,
2:161:JDFS-16,,"Snědovice,Strachaly",,,,652,,0,,Europe/Prague,0,
2:161:JDFS-19,,"Snědovice,Sukorady,rozc.",,,,634,,0,,Europe/Prague,0,
2:161:JDFS-25,,"Hoštka,Velešice",,,,654,,0,,Europe/Prague,0,
2:161:JDFS-27,,"Hoštka,Velešická",,,,654,,0,,Europe/Prague,0,
2:161:JDFS-5,,"Úštěk,Kalovice",,,,634,,0,,Europe/Prague,0,
2:161:JDFS-6,,"Úštěk,Krásná Studánka",,,,634,,0,,Europe/Prague,0,
2:161:JDFS-7,,"Blíževedly,Skalka,rozc.",,,,634,,0,,Europe/Prague,0,
2:161:JDFS-9,,"Snědovice,Lomy",,,,"652,652",,0,,Europe/Prague,0,
